full_address,beds,baths,year_built,sq_ft_interior,sq_ft_lot,price,lat,long,zip_code
2326 LUAU ST MESQUITE TX 75150,3,1.5,1966,1356,8303,241183,32.7987738,-96.649097,75150
1737 HIGHLAND ST MESQUITE TX 75149,3,1.0,1955,1454,7501,218014,32.7874273,-96.6096475,75149
2900 SIDNEY DR MESQUITE TX 75150,3,2.0,1972,1392,7196,241089,32.8172466,-96.6441253,75150
1507 RICHARD ST MESQUITE TX 75149,3,1.0,1957,1313,7501,205940,32.7874128,-96.6165747,75149
806 BRANDON DR SEAGOVILLE TX 75159,5,2.0,2004,1504,8407,275611,32.6615894,-96.5470035,75159
302 S EBRITE ST MESQUITE TX 75149,3,3.0,1948,1408,13338,256886,32.76515,-96.6021579,75149
2411 MESQUITE VALLEY RD MESQUITE TX 75149,5,3.5,1984,4125,6721,464509,32.7471993,-96.5670063,75149
514 PAYTON CT SEAGOVILLE TX 75159,4,2.0,2008,1420,8708,229255,32.651993,-96.5384374,75159
2231 SCHIRRA WAY  MESQUITE TX 75150,4,2.0,1971,1864,7736,309514,32.8075458,-96.6357769,75150
4733 SALEM DR MESQUITE TX 75150,3,1.0,1958,1143,7240,196223,32.8311127,-96.6399143,75150
503 W STARK RD SEAGOVILLE TX 75159,3,1.5,1952,1988,60113,327887,32.6639412,-96.5894129,75159
3124 PECAN CROSSING  MESQUITE TX 75181,3,2.0,2002,1918,7018,280633,32.7310813,-96.5387917,75181
837 W GROSS ST MESQUITE TX 75149,1,1.0,1954,504,178160,360982,32.7643058,-96.6096371,75149
810 BRANDON DR SEAGOVILLE TX 75159,3,2.0,2004,1579,7301,284967,32.6618243,-96.5467117,75159
1600 LIBERTY LN MESQUITE TX 75149,2,2.0,1987,1495,3999,268411,32.7876918,-96.5996337,75149
4341 SOARING STAR LN MESQUITE TX 75181,3,2.0,2021,2056,6251,388566,32.722716,-96.5459196,75181
736 VIA SONOMA  MESQUITE TX 75150,3,2.0,1978,1607,8041,304669,32.8199565,-96.6069353,75150
2909 BLUETS DR MESQUITE TX 75150,3,2.5,2022,1728,1982,311178,32.80374,-96.632486,75150
1509 RIDGEVIEW ST MESQUITE TX 75149,4,2.0,1956,1296,6900,269558,32.7869245,-96.6157813,75149
2845 NIGHTHAWK DR MESQUITE TX 75181,4,3.0,2009,2500,9544,355938,32.7148629,-96.5314146,75181
111 COLONIAL CIR SEAGOVILLE TX 75159,3,1.0,1984,1108,11252,192831,32.6505944,-96.5496715,75159
2917 BLUETS DR MESQUITE TX 75150,3,2.5,2022,1767,2879,325125,32.803727,-96.632327,75150
3136 WICHITA DR MESQUITE TX 75149,3,2.0,1983,1711,8163,271434,32.78173,-96.6451676,75149
2810 QUAIL HOLLOW DR MESQUITE TX 75150,3,2.0,1984,1383,8276,268926,32.8031216,-96.6083123,75150
513 STARLING DR MESQUITE TX 75149,3,2.0,1970,1389,7802,259638,32.7741088,-96.6433314,75149
600 VIA LA PALOMA  MESQUITE TX 75150,3,2.5,1981,1712,7810,268305,32.8325029,-96.6036391,75150
4319 LIVE OAK DR MESQUITE TX 75150,4,2.5,1963,1846,7200,258965,32.8242921,-96.6386131,75150
1007 PHEASANT DR MESQUITE TX 75150,3,2.0,1983,1368,6843,250242,32.8022303,-96.6126595,75150
1630 VALLEY VIEW ST MESQUITE TX 75149,2,1.5,1955,1255,9026,213630,32.7846248,-96.6095224,75149
817 VIA AVENIDA  MESQUITE TX 75150,3,2.0,1973,1516,7318,270935,32.8277486,-96.6090509,75150
126 WALNUT DR SEAGOVILLE TX 75159,4,2.5,2001,2814,6434,348423,32.6668151,-96.5890792,75159
831 CEDAR DR MESQUITE TX 75149,2,1.0,1954,962,7314,197872,32.7608659,-96.609774,75149
1004 ARMSTRONG RD SEAGOVILLE TX 75159,3,2.0,2010,1012,11252,210824,32.6419389,-96.560553,75159
2713 JUDY DR MESQUITE TX 75149,3,1.0,1962,1586,10001,226521,32.7870223,-96.6375853,75149
3113 COLONY DR MESQUITE TX 75150,4,2.0,1983,1679,8577,330199,32.8058681,-96.6476309,75150
156 QUAIL RUN DR SEAGOVILLE TX 75159,4,2.5,2002,2418,6159,316049,32.6655782,-96.5900386,75159
3401 SHERYL DR MESQUITE TX 75150,3,1.5,1953,1384,6482,215481,32.8141337,-96.6498021,75150
2316 LOVELL DR MESQUITE TX 75150,4,3.0,1970,2190,7736,299773,32.8084172,-96.6367756,75150
4235 HARVEY DR MESQUITE TX 75150,4,2.0,1956,1289,7200,263734,32.8230624,-96.6568171,75150
1608 OXFORD PL MESQUITE TX 75149,4,2.0,1984,2053,8398,319999,32.7877518,-96.6450006,75149
2631 BEVERLY HILLS LN MESQUITE TX 75150,4,2.0,1978,2068,7671,351834,32.8367694,-96.6399507,75150
3031 KARLA DR MESQUITE TX 75150,4,1.5,1959,1068,7553,245261,32.8306781,-96.6442403,75150
1317 LANEMAR DR MESQUITE TX 75149,3,1.0,1955,1248,7200,189960,32.7819812,-96.6022205,75149
3714 SHERYL DR MESQUITE TX 75150,3,1.0,1959,1330,7200,219237,32.8132156,-96.6556114,75150
3106 DEERHOLLOW DR MESQUITE TX 75181,4,2.5,1998,2878,8050,379570,32.7394397,-96.5561927,75181
814 DAKOTA LN SEAGOVILLE TX 75159,3,2.5,2005,1796,12323,280409,32.6626772,-96.5472119,75159
1214 RANCHO DR MESQUITE TX 75149,3,2.0,1970,1294,7754,234274,32.7514106,-96.5892392,75149
3200 EDGEBROOK DR MESQUITE TX 75150,3,1.0,1960,975,10080,224349,32.8085954,-96.6384043,75150
3620 HILTON DR MESQUITE TX 75150,3,2.0,1968,1794,7440,309485,32.8153373,-96.6546798,75150
333 E GRUBB DR MESQUITE TX 75149,3,2.0,1978,1900,10202,325444,32.775291,-96.59297,75149
649 WINDSONG  MESQUITE TX 75149,4,2.0,1986,1896,4931,301833,32.7728392,-96.5782344,75149
821 LINDO DR MESQUITE TX 75149,3,1.0,1958,884,8041,191253,32.7570041,-96.5873126,75149
1606 E FARMERS RD SEAGOVILLE TX 75159,4,3.0,1976,3216,87120,509098,32.6608805,-96.5466908,75159
4704 KNOLLVIEW LN MESQUITE TX 75150,3,2.0,1984,2069,7667,306271,32.8281391,-96.6157865,75150
2113 CREEK ROYAL DR MESQUITE TX 75181,3,2.0,1993,1498,5484,272890,32.7360691,-96.543818,75181
404 BALLARD RD SEAGOVILLE TX 75159,3,2.0,1959,1244,20238,275275,32.6313909,-96.5318313,75159
318 E GRUBB DR MESQUITE TX 75149,3,2.0,1971,1573,7671,316301,32.7748739,-96.5936666,75149
801 HUDDLESTON CT SEAGOVILLE TX 75159,3,2.0,2004,1450,9026,243277,32.660176,-96.5462948,75159
407 BAKER ST SEAGOVILLE TX 75159,3,2.0,2001,1175,11979,223732,32.6330116,-96.5327899,75159
1300 DEVELON DR MESQUITE TX 75149,4,2.0,1964,1284,9845,264294,32.7492893,-96.6161157,75149
302 ROLLINGWOOD DR MESQUITE TX 75149,3,1.0,1954,1244,7200,228752,32.765037,-96.6381218,75149
2221 VALLEY FALLS AVE MESQUITE TX 75181,3,2.0,1993,2240,7200,310582,32.7348907,-96.5957918,75181
4720 STALLCUP DR MESQUITE TX 75150,3,2.0,1966,1677,7680,279312,32.8316816,-96.6384448,75150
2621 WESTVIEW DR MESQUITE TX 75150,3,2.0,1964,1264,7200,243052,32.8021957,-96.6424121,75150
1833 PALO ALTO DR MESQUITE TX 75150,3,2.5,1985,2109,4317,299933,32.8447572,-96.6322563,75150
3601 DEMARET DR MESQUITE TX 75150,3,1.0,1957,1516,9500,303002,32.8329136,-96.653059,75150
341 E GRUBB DR MESQUITE TX 75149,3,2.0,1979,1842,6761,317306,32.7753127,-96.5925559,75149
2921 WANDA WAY  SEAGOVILLE TX 75159,3,2.0,1955,1492,13351,246228,32.6723705,-96.5836983,75159
1023 S BRYAN ST MESQUITE TX 75149,3,1.0,1954,1314,10123,261484,32.7547421,-96.5980597,75149
3628 DEMARET DR MESQUITE TX 75150,2,1.0,1958,1272,7501,219499,32.8317026,-96.65356,75150
1433 JESSICA LN MESQUITE TX 75149,3,2.0,1997,1842,5171,303049,32.7501001,-96.6107325,75149
1001 SCHRADE TRL MESQUITE TX 75181,3,2.0,1990,1805,7854,323814,32.7555111,-96.5601623,75181
3002 BRIARBROOK DR SEAGOVILLE TX 75159,4,2.5,2007,2939,14301,357813,32.6926866,-96.5506303,75159
1126 CYPRESS DR MESQUITE TX 75149,3,2.0,1988,1468,7919,265701,32.7626358,-96.5836888,75149
2811 DENNIS CIR SEAGOVILLE TX 75159,4,2.5,2022,1858,16030,343582,32.6699376,-96.5806534,75159
1405 BAYLEE ST SEAGOVILLE TX 75159,5,2.0,2007,2175,7200,328204,32.6553381,-96.5480456,75159
6125 CREEKHAVEN DR MESQUITE TX 75181,4,3.0,2018,2700,11182,436841,32.699797,-96.5549661,75181
1332 VIRGIE JOE DR MESQUITE TX 75149,3,2.0,1973,1814,6120,288775,32.7502504,-96.5761491,75149
1307 ROSS LN SEAGOVILLE TX 75159,3,2.0,1985,1238,9801,228459,32.6580214,-96.5311228,75159
4537 WOODBLUFF DR MESQUITE TX 75150,4,3.0,2005,2376,7131,370705,32.8263777,-96.5995711,75150
1302 HANEY LN MESQUITE TX 75149,3,1.0,1954,660,9078,165095,32.751356,-96.6277918,75149
2027 ELM FALLS PL MESQUITE TX 75181,5,2.5,2000,3024,10642,367004,32.7357466,-96.5981318,75181
2612 SPRING RAIN DR MESQUITE TX 75181,3,2.0,1996,1444,5672,259095,32.73982,-96.5413343,75181
1300 RUSK DR MESQUITE TX 75149,3,1.0,1962,1697,7501,209464,32.7390165,-96.6165091,75149
4939 REGAL BLUFF  MESQUITE TX 75150,2,2.5,1985,1092,1616,199032,32.832906,-96.6020648,75150
4847 PALOS VERDES DR MESQUITE TX 75150,2,2.0,1984,1282,3038,242033,32.8311855,-96.6118267,75150
3320 HIGH MEADOW DR MESQUITE TX 75181,4,2.5,1996,2160,5846,339857,32.7513431,-96.5468784,75181
1023 JARDIN DR MESQUITE TX 75149,3,1.0,1955,925,7318,193958,32.7548022,-96.591451,75149
2633 GREENLAND DR MESQUITE TX 75150,5,2.0,1961,1831,7379,316252,32.8264736,-96.6363588,75150
2710 CUMBERLAND DR MESQUITE TX 75150,3,2.5,1962,1268,7802,279219,32.8006788,-96.6405012,75150
4333 SHERWOOD DR MESQUITE TX 75150,3,1.5,1956,930,9749,241953,32.8247483,-96.6548127,75150
122 IDLEWYLD DR MESQUITE TX 75149,3,2.0,2000,1893,4957,353597,32.7671306,-96.6407004,75149
1417 COOL SPRINGS DR MESQUITE TX 75181,3,2.0,1992,1266,5602,250762,32.7468403,-96.547337,75181
4402 LIVE OAK DR MESQUITE TX 75150,3,1.5,1961,1500,7318,253834,32.8248983,-96.6386912,75150
2820 MAPLE DR MESQUITE TX 75150,3,1.5,1959,1154,7741,196049,32.8285593,-96.6417024,75150
1734 HILLCREST ST MESQUITE TX 75149,3,2.0,1955,1234,7501,209648,32.7852638,-96.6073943,75149
2022 PICADILLY BLVD MESQUITE TX 75149,3,2.5,1995,1814,4744,299484,32.7572792,-96.6285947,75149
2616 LARCHMONT DR MESQUITE TX 75150,3,1.0,1964,1489,7200,239786,32.7961603,-96.6404871,75150
913 VIA BARCELONA  MESQUITE TX 75150,3,2.0,1977,1782,8259,334460,32.8233706,-96.6100022,75150
2304 GERBER DR MESQUITE TX 75181,4,2.5,1997,2571,5001,353531,32.7571492,-96.5651587,75181
3407 POINT EAST DR MESQUITE TX 75150,3,2.0,1971,1255,7340,254248,32.8096938,-96.6512655,75150
2314 TRADEWIND DR MESQUITE TX 75150,3,1.5,1961,1274,6839,232210,32.7986536,-96.6546419,75150
1817 BLACKFOOT TRL MESQUITE TX 75149,4,2.5,1992,2658,15533,429487,32.7512824,-96.5719578,75149
1515 HILLCREST ST MESQUITE TX 75149,3,1.0,1955,1265,7501,239083,32.7829268,-96.610868,75149
2747 LARCHMONT DR MESQUITE TX 75150,3,1.5,1963,1075,10559,267304,32.794277,-96.6419529,75150
4869 PRESTON TRAIL DR MESQUITE TX 75150,3,2.0,1976,1692,7671,356799,32.8372486,-96.6414933,75150
705 COOLWOOD LN MESQUITE TX 75149,3,2.0,1979,1306,7802,294444,32.7589901,-96.5769415,75149
1708 HIGHLAND ST MESQUITE TX 75149,3,1.0,1955,1136,7497,181788,32.7862948,-96.6103152,75149
1300 TULIP TRL MESQUITE TX 75149,3,2.0,1978,1377,7327,264482,32.7506761,-96.5872343,75149
3706 MOON DR MESQUITE TX 75150,3,1.5,1962,1032,7436,239004,32.8178856,-96.6550657,75150
4005 VIA PLATA  MESQUITE TX 75150,4,2.0,1977,1756,9439,283305,32.8201058,-96.6120052,75150
914 VIA SONOMA  MESQUITE TX 75150,4,2.5,1978,2192,8259,336723,32.8198791,-96.6100648,75150
3030 CLAY MATHIS RD MESQUITE TX 75181,4,3.0,2006,4008,35414,424890,32.7308205,-96.5416886,75181
442 CARVER ST MESQUITE TX 75149,2,1.0,1951,720,7000,172751,32.7626313,-96.5953783,75149
513 HOLLEY ST MESQUITE TX 75149,2,1.0,1962,973,7645,192340,32.7616787,-96.5925812,75149
1814 ROSEMONT ST MESQUITE TX 75149,2,1.0,1955,889,7501,189696,32.788796,-96.6101589,75149
1524 ROSEMONT ST MESQUITE TX 75149,3,1.0,1955,989,7501,203988,32.7859168,-96.6135153,75149
1323 BELMONT ST MESQUITE TX 75149,3,1.0,1956,1103,7501,197536,32.7833236,-96.6160066,75149
1435 ROSEMONT ST MESQUITE TX 75149,3,1.0,1955,1306,8747,220721,32.7852988,-96.614988,75149
913 GLENN CIR MESQUITE TX 75149,2,1.5,1970,960,7802,220720,32.7761606,-96.6043901,75149
1157 REDMAN AVE MESQUITE TX 75149,2,2.0,2006,1025,4800,182532,32.7820268,-96.6201139,75149
1910 ARAPAHO TRL MESQUITE TX 75149,3,2.0,1989,1813,12676,323361,32.7509493,-96.5695182,75149
4957 KINGFISHER LN MESQUITE TX 75181,4,2.5,2004,3342,8446,372816,32.7213164,-96.536541,75181
804 COOLWOOD LN MESQUITE TX 75149,3,2.0,1979,1422,7200,274961,32.7581802,-96.5773168,75149
504 HOLLEY ST MESQUITE TX 75149,3,1.0,1952,1255,7501,226842,32.7619242,-96.5929961,75149
1412 ANDREW ST MESQUITE TX 75149,2,1.0,1958,1302,7501,211490,32.7849878,-96.6160023,75149
1412 RICHARD ST MESQUITE TX 75149,3,1.0,1956,1220,7501,236990,32.7861462,-96.617363,75149
1300 MULBERRY LN MESQUITE TX 75149,3,2.0,1974,1451,10119,283066,32.7508802,-96.5862967,75149
1329 HIGHLAND ST MESQUITE TX 75149,3,1.0,1958,1336,7497,224799,32.7829289,-96.614988,75149
1720 ROSEMONT ST MESQUITE TX 75149,3,1.5,1956,1105,7497,215190,32.7878313,-96.611229,75149
1415 ROSEMONT ST MESQUITE TX 75149,3,1.0,1955,1116,7497,208309,32.784683,-96.6156862,75149
1311 SPRINGHAVEN DR MESQUITE TX 75181,3,2.0,1993,1834,7867,311163,32.7494738,-96.547193,75181
1620 ANDREW ST MESQUITE TX 75149,2,1.0,1955,1464,7501,264052,32.7873248,-96.6132375,75149
1618 RIDGEVIEW ST MESQUITE TX 75149,2,1.0,1956,1335,7501,225743,32.7878162,-96.61406,75149
1325 RIDGEVIEW ST MESQUITE TX 75149,3,1.0,1956,1224,7501,235739,32.7851971,-96.6178803,75149
2421 SPOONBILL CT MESQUITE TX 75181,4,2.5,2003,2838,5441,317160,32.7236238,-96.5352489,75181
1518 ANDREW ST MESQUITE TX 75149,4,2.0,1956,1843,7501,267422,32.7862561,-96.6144758,75149
1705 RIDGEVIEW ST MESQUITE TX 75149,3,2.0,1981,1320,8050,235990,32.7888886,-96.6135172,75149
937 CARVER ST MESQUITE TX 75149,2,2.0,1967,1476,15159,262566,32.7564541,-96.5959624,75149
1514 HILLWOOD DR MESQUITE TX 75149,3,2.0,1973,1658,7200,293845,32.7547183,-96.5780259,75149
1322 WISTERIA WAY  MESQUITE TX 75149,3,2.0,1982,1394,11526,289972,32.7499806,-96.5843943,75149
2323 LARCHMONT DR MESQUITE TX 75150,4,3.0,1969,2368,7623,285697,32.8016544,-96.6360666,75150
2304 NAROBI PL MESQUITE TX 75149,3,1.5,1962,1064,7279,214633,32.7388119,-96.6199551,75149
1837 GROVE CIR MESQUITE TX 75149,3,1.5,1958,957,5885,206961,32.7438353,-96.6196212,75149
525 OXBOW ST MESQUITE TX 75149,3,2.0,1985,1202,3855,246824,32.7620473,-96.5797725,75149
1409 SAVANNAH ST MESQUITE TX 75149,2,2.5,1990,2019,3737,276814,32.7644209,-96.5804813,75149
2413 LARCHMONT DR MESQUITE TX 75150,3,2.0,1966,1472,7606,314984,32.800212,-96.6377899,75150
2405 EASTBROOK DR MESQUITE TX 75150,3,2.0,1968,1598,8189,271947,32.8036025,-96.6365675,75150
2116 AVIS ST MESQUITE TX 75149,2,1.5,1960,972,7501,195441,32.7405218,-96.6150804,75149
4044 HEARTHSTONE DR MESQUITE TX 75150,2,2.0,1986,1143,3363,233547,32.8197424,-96.5962309,75150
923 DANDELION DR MESQUITE TX 75149,4,2.0,1998,2325,12785,365419,32.7742458,-96.5861384,75149
1213 OLD BARN LN MESQUITE TX 75149,3,2.0,1985,1315,4526,278841,32.7793502,-96.5712697,75149
1001 GARDEN TRL MESQUITE TX 75149,3,2.0,1985,1374,5976,283651,32.7769116,-96.5797947,75149
806 S BRYAN-BELT LINE RD MESQUITE TX 75149,2,2.0,1945,1075,16649,211223,32.7589479,-96.5969636,75149
1716 ROSEMONT ST MESQUITE TX 75149,2,1.5,1958,1136,7501,213098,32.7877298,-96.6114001,75149
1521 ROSEMONT ST MESQUITE TX 75149,3,2.0,1955,1054,7501,185828,32.7861499,-96.6139877,75149
1329 RIDGEVIEW ST MESQUITE TX 75149,2,1.0,1956,1004,7501,199546,32.7852981,-96.6177512,75149
1511 GREYWOOD DR MESQUITE TX 75149,3,2.0,1978,1454,7200,250172,32.7559598,-96.5782135,75149
608 COOLWOOD LN MESQUITE TX 75149,3,2.0,1979,1272,7200,245839,32.7599932,-96.5762325,75149
2500 BELHAVEN DR MESQUITE TX 75150,3,3.0,1988,2023,9361,325324,32.804517,-96.6375277,75150
2311 APOLLO WAY  MESQUITE TX 75150,3,2.0,1969,1634,7553,276391,32.8005961,-96.6345189,75150
2132 AVIS ST MESQUITE TX 75149,2,1.5,1961,1046,7501,178477,32.739907,-96.6147945,75149
2332 NORTHVIEW DR MESQUITE TX 75150,4,2.0,1969,1728,7606,246219,32.8001414,-96.6357391,75150
1216 RUSK DR MESQUITE TX 75149,3,1.0,1961,1778,7501,239545,32.7389788,-96.6160884,75149
1311 ATHENS DR MESQUITE TX 75149,4,2.0,1961,1628,8002,237725,32.7386629,-96.6170123,75149
2509 BENT BROOK DR MESQUITE TX 75181,3,2.5,1993,1893,5645,280459,32.7400038,-96.5435286,75181
2609 CRYSTAL FALLS DR MESQUITE TX 75181,3,2.0,1996,1644,7022,285463,32.740057,-96.5410009,75181
2420 LOVELL DR MESQUITE TX 75150,3,2.0,1970,1840,9518,306734,32.807432,-96.637982,75150
2600 HELEN LN MESQUITE TX 75181,4,2.5,1993,2165,5772,323488,32.7384589,-96.5436985,75181
4613 OLYMPIA DR MESQUITE TX 75150,3,2.0,1981,1930,7396,370229,32.827918,-96.607393,75150
2536 BELHAVEN DR MESQUITE TX 75150,3,2.0,1968,1736,7606,270536,32.8033143,-96.6389958,75150
1443 WINDMILL LN MESQUITE TX 75149,3,2.0,1986,1412,4683,285666,32.7784643,-96.5756069,75149
1333 HACKAMORE ST MESQUITE TX 75149,3,2.0,1985,1395,4800,260234,32.7778895,-96.5773586,75149
1528 COPPER MEADOW DR MESQUITE TX 75149,3,2.0,1986,1334,5846,256104,32.7756591,-96.5746894,75149
1541 COPPER MEADOW DR MESQUITE TX 75149,3,2.0,1985,1412,6164,276866,32.7761178,-96.574314,75149
2712 WESTVIEW DR MESQUITE TX 75150,4,2.0,1964,2057,8146,306430,32.8030051,-96.6428713,75150
2526 CUMBERLAND DR MESQUITE TX 75150,3,2.5,1968,2199,7606,302752,32.8030957,-96.637817,75150
732 DANDELION DR MESQUITE TX 75149,3,2.0,2000,2100,7292,345397,32.7739815,-96.5890792,75149
1406 WINDMILL LN MESQUITE TX 75149,3,2.0,1986,1397,4474,268747,32.778313,-96.5768164,75149
1330 WINDMILL LN MESQUITE TX 75149,3,2.5,1985,1671,4800,276932,32.7783219,-96.5774837,75149
1545 COPPER MEADOW DR MESQUITE TX 75149,3,2.0,1985,1679,5850,290733,32.7761243,-96.5741889,75149
2701 HIDDEN SPRINGS DR MESQUITE TX 75181,3,2.0,1995,1475,5502,262733,32.7377125,-96.542168,75181
2600 SPRING RAIN DR MESQUITE TX 75181,3,2.0,1997,1420,5650,259532,32.7401517,-96.5417095,75181
2400 CHASEPARK DR MESQUITE TX 75181,3,2.0,2001,2212,8364,309452,32.7297981,-96.5415011,75181
2205 ANDERS DR MESQUITE TX 75150,4,2.0,1972,2045,7854,342202,32.8073114,-96.6344803,75150
2225 ANDERS DR MESQUITE TX 75150,4,2.0,1972,2045,7854,314803,32.806698,-96.6353562,75150
4812 CLUB VIEW CIR MESQUITE TX 75150,4,2.5,2003,3038,8721,384416,32.8379907,-96.6425373,75150
1715 DOUBLETREE PL MESQUITE TX 75149,3,2.5,1985,1736,4173,235298,32.7797301,-96.5723957,75149
1612 HACKAMORE ST MESQUITE TX 75149,2,2.0,1984,1190,4400,240616,32.7765852,-96.5737719,75149
1025 GARDEN TRL MESQUITE TX 75149,3,2.0,1985,1258,4857,265955,32.7773622,-96.5790672,75149
1557 COPPER MEADOW DR MESQUITE TX 75149,4,2.5,1986,1809,4944,309942,32.776234,-96.5737719,75149
512 LINDO DR MESQUITE TX 75149,3,1.5,1968,1031,7200,225594,32.7613429,-96.5861932,75149
519 FREEMAN ST MESQUITE TX 75149,2,1.0,1953,977,7200,209629,32.7616028,-96.5905333,75149
1200 WOODCREST DR MESQUITE TX 75149,2,2.0,1958,1115,9374,209703,32.7444918,-96.6154098,75149
2009 SPRING LAKE DR MESQUITE TX 75149,4,2.0,1960,1171,10981,227415,32.7417634,-96.6156149,75149
6110 LUMLEY RD MESQUITE TX 75181,3,2.0,1970,1569,36155,260209,32.7011429,-96.5535903,75181
1215 CHELSEA CT MESQUITE TX 75149,4,2.0,1998,1652,6660,295869,32.7528418,-96.6138229,75149
2836 THRUSH DR MESQUITE TX 75181,3,2.5,2004,2560,7723,339112,32.7193815,-96.5365827,75181
2420 BROOK CREST DR MESQUITE TX 75150,4,2.0,1989,1732,9500,325700,32.7983653,-96.6019701,75150
518 WILLOWBROOK DR MESQUITE TX 75149,2,1.0,1955,1021,7200,198231,32.7803942,-96.6048491,75149
2310 APOLLO WAY  MESQUITE TX 75150,4,2.0,1970,1962,7671,314975,32.8000362,-96.6344518,75150
2405 AVIS ST MESQUITE TX 75149,3,1.0,1961,1392,7440,204301,32.7364356,-96.614658,75149
2436 LINDALE LN MESQUITE TX 75149,3,1.0,1969,1176,15002,226750,32.7350496,-96.6156312,75149
3704 BYRD DR MESQUITE TX 75150,3,1.5,1962,1702,7318,241432,32.8040374,-96.6549241,75150
119 WILDERNESS TRL MESQUITE TX 75149,2,2.0,1984,1111,4386,216346,32.7823732,-96.5971709,75149
1306 BUENA VISTA ST MESQUITE TX 75149,3,1.0,1958,1184,7501,228035,32.7790568,-96.6120696,75149
828 VIA MADONNA  MESQUITE TX 75150,3,2.5,1982,1592,3040,280973,32.8317657,-96.6084582,75150
2605 MARK DR MESQUITE TX 75150,3,1.5,1962,1952,9052,257386,32.7944597,-96.6402907,75150
2800 BELHAVEN DR MESQUITE TX 75150,3,1.5,1961,1224,9479,242147,32.7997076,-96.6421616,75150
5334 KIAMESHA WAY  MESQUITE TX 75150,3,1.0,1955,1119,7501,222385,32.8361494,-96.6559044,75150
5042 KIAMESHA WAY  MESQUITE TX 75150,3,1.0,1956,1109,9775,220418,32.832695,-96.6555226,75150
3514 LA PRADA DR MESQUITE TX 75150,4,2.0,1959,1941,9239,253328,32.8340495,-96.6498438,75150
3403 CARACAS DR MESQUITE TX 75150,2,1.5,1959,978,9749,246505,32.8313478,-96.6505592,75150
550 OXBOW ST MESQUITE TX 75149,3,2.0,1985,1440,3951,253754,32.7614103,-96.579313,75149
1445 SAVANNAH ST MESQUITE TX 75149,3,2.0,1988,1471,5101,276133,32.7649859,-96.5794678,75149
822 BIG THICKET TRL MESQUITE TX 75149,4,2.0,1996,2220,8072,331476,32.7774631,-96.5850518,75149
1417 MEADOWCREST DR MESQUITE TX 75149,3,2.0,1969,1893,9239,286520,32.7828802,-96.6371311,75149
1424 MOUNT VERNON DR MESQUITE TX 75149,3,2.5,1967,1684,6900,257659,32.7831232,-96.6380034,75149
2700 SYBIL CIR MESQUITE TX 75149,4,2.5,1967,2238,8738,312618,32.7839644,-96.6377783,75149
3923 FARRINGTON ST MESQUITE TX 75150,3,2.0,1981,1474,8847,262599,32.8177734,-96.6165302,75150
3927 FARRINGTON ST MESQUITE TX 75150,4,2.0,1981,2196,4556,363526,32.8177671,-96.6168251,75150
101 RIPPLEWOOD DR MESQUITE TX 75150,3,2.0,1983,1439,13687,275079,32.7954516,-96.596463,75150
4859 BEDFORD DR MESQUITE TX 75150,3,1.5,1957,1442,7074,231694,32.8336777,-96.6443319,75150
3051 MASON DR MESQUITE TX 75150,3,1.5,1959,1404,7048,304976,32.8312799,-96.6464698,75150
607 BUTTON DR MESQUITE TX 75150,3,2.0,1980,1711,7440,284765,32.8184618,-96.6049116,75150
623 ROSEDOWN LN MESQUITE TX 75150,3,2.0,1981,1967,7706,292386,32.8099457,-96.606226,75150
1514 BETTE DR MESQUITE TX 75149,3,2.0,1981,1616,7993,308231,32.7427576,-96.5791525,75149
1529 SAVANNAH ST MESQUITE TX 75149,3,2.0,1988,1192,3981,244283,32.7648954,-96.5781927,75149
1616 OXFORD PL MESQUITE TX 75149,4,2.5,1984,2198,10149,334691,32.7880328,-96.6446666,75149
2510 LARCHMONT DR MESQUITE TX 75150,3,1.5,1963,1616,8978,275597,32.7977299,-96.6389053,75150
2512 NORTHVIEW DR MESQUITE TX 75150,3,1.5,1965,1523,7379,281682,32.7969879,-96.6380697,75150
1916 CHIPPEWA TRL MESQUITE TX 75149,4,2.5,1992,2404,21610,403703,32.7485664,-96.5663907,75149
1928 BLACKFOOT TRL MESQUITE TX 75149,4,3.5,1994,3376,10877,417077,32.7522929,-96.5698518,75149
423 PADDY ST MESQUITE TX 75149,3,1.0,1954,1212,7148,245899,32.7626135,-96.589539,75149
2113 CRAWFORD DR MESQUITE TX 75149,3,2.0,2000,1446,7292,253597,32.7472873,-96.5698518,75149
916 JACKSONHOLE LN MESQUITE TX 75149,3,2.0,1987,2240,7819,350839,32.7770368,-96.5894129,75149
1239 TOSCH LN MESQUITE TX 75149,4,2.0,1961,1514,9601,299171,32.752294,-96.6007602,75149
1107 CYPRESS DR MESQUITE TX 75149,3,2.0,1988,1408,9479,287696,32.763195,-96.5846576,75149
1427 CRAWFORD DR MESQUITE TX 75149,4,2.0,2000,2168,10851,369603,32.7495145,-96.5742723,75149
1106 POWELL RD MESQUITE TX 75149,2,1.0,1955,1294,6887,251718,32.7551483,-96.6265495,75149
1219 LANEMAR DR MESQUITE TX 75149,2,1.5,1955,1009,7200,190132,32.7808575,-96.6018867,75149
1210 GATE LANE DR MESQUITE TX 75149,2,1.0,1955,1009,6599,210127,32.7804733,-96.603347,75149
4715 BEDFORD DR MESQUITE TX 75150,3,1.0,1958,1318,6983,223345,32.8298881,-96.6400386,75150
1421 EASTERN HEIGHTS DR MESQUITE TX 75149,3,1.5,1972,1381,7200,228818,32.7478716,-96.5824042,75149
1429 EAST PARK DR MESQUITE TX 75149,3,1.5,1972,1176,7440,226347,32.7474955,-96.5814509,75149
1346 RUTHERFORD DR MESQUITE TX 75149,3,2.0,1972,1506,7200,216068,32.7491178,-96.5776505,75149
2424 CATALINA DR MESQUITE TX 75150,3,2.0,1966,1256,7327,286074,32.7992927,-96.6484635,75150
2230 ALOHA DR MESQUITE TX 75150,3,2.0,1967,1381,9243,257332,32.7981627,-96.6497987,75150
2205 ALOHA DR MESQUITE TX 75150,3,1.5,1966,1554,7436,258940,32.7973346,-96.6490056,75150
1501 SPICEWOOD DR MESQUITE TX 75181,3,2.0,1992,1320,6665,286966,32.7439901,-96.5428331,75181
1604 SIERRA DR MESQUITE TX 75149,3,2.0,1969,1247,7200,242200,32.7512406,-96.5765244,75149
1413 RUTHERFORD DR MESQUITE TX 75149,3,2.0,1981,1548,8320,250602,32.747906,-96.578151,75149
1503 HANCOCK DR MESQUITE TX 75149,3,2.0,1984,1222,5406,255965,32.7871673,-96.599592,75149
2502 VIVA DR MESQUITE TX 75150,3,2.0,1965,1417,7327,291759,32.7993237,-96.6468768,75150
2404 CATALINA DR MESQUITE TX 75150,4,2.0,1965,1396,7327,271696,32.7988082,-96.6475064,75150
2401 CATALINA DR MESQUITE TX 75150,3,2.0,1965,1594,7327,277109,32.7983581,-96.6477177,75150
4700 MILLRIDGE DR MESQUITE TX 75150,4,2.5,1999,2584,5981,398048,32.8279729,-96.5988293,75150
1301 SIERRA DR MESQUITE TX 75149,3,1.0,1961,1122,9026,240184,32.752855,-96.5817379,75149
1331 CALADIUM DR MESQUITE TX 75149,3,1.5,1961,1040,7562,227193,32.7495901,-96.5801876,75149
2304 AUSTIN DR MESQUITE TX 75181,3,2.0,1992,1758,7566,341176,32.7409338,-96.5469201,75181
1619 BRENWOOD DR MESQUITE TX 75181,3,2.0,1990,1682,7767,310726,32.7449956,-96.5473675,75181
609 BLUEBONNET LN MESQUITE TX 75149,3,1.0,1962,1264,7802,240086,32.7598996,-96.5813625,75149
2321 ELKRIDGE DR MESQUITE TX 75181,3,2.0,1997,1960,7244,304696,32.7395343,-96.5577674,75181
3303 KENSINGTON DR MESQUITE TX 75150,3,2.0,1973,1693,8625,313889,32.8095735,-96.6488173,75150
3205 BERKSHIRE DR MESQUITE TX 75150,3,2.0,1972,1719,7797,293528,32.8090639,-96.6480612,75150
3012 KENSINGTON DR MESQUITE TX 75150,3,2.0,1977,1696,7797,339288,32.8119642,-96.6452093,75150
2426 MARK DR MESQUITE TX 75150,4,2.0,1963,1968,8359,271907,32.795991,-96.637777,75150
2805 EASTBROOK DR MESQUITE TX 75150,3,1.0,1962,1245,7562,237342,32.79797,-96.6418276,75150
2535 LARCHMONT DR MESQUITE TX 75150,3,1.5,1963,1065,7919,213979,32.7970825,-96.6401107,75150
3123 GREENFIELD CT MESQUITE TX 75181,3,2.0,1993,1564,8124,271461,32.7514535,-96.5498286,75181
1214 MEANDERING WAY  MESQUITE TX 75150,3,2.0,1980,1670,7919,306411,32.813541,-96.613654,75150
2020 SYCAMORE DR MESQUITE TX 75149,3,1.0,1960,912,7501,199863,32.7413673,-96.6190842,75149
1453 EASTERN HEIGHTS DR MESQUITE TX 75149,3,2.0,1973,1240,7200,270351,32.7465842,-96.5824874,75149
1443 CALADIUM DR MESQUITE TX 75149,3,1.5,1972,1231,8233,225722,32.7468722,-96.5803167,75149
1431 CALADIUM DR MESQUITE TX 75149,3,2.0,1972,1265,7440,264750,32.7473506,-96.5803134,75149
1402 CALADIUM DR MESQUITE TX 75149,3,2.0,1972,1233,8041,257727,32.748516,-96.579941,75149
523 BINKLEY CT MESQUITE TX 75181,3,2.0,2003,2128,7200,336551,32.7593261,-96.5596358,75181
1335 HAZEL CT MESQUITE TX 75149,3,1.5,1972,1122,9113,259402,32.7498553,-96.5769832,75149
701 TEALWOOD DR MESQUITE TX 75181,4,2.5,1993,2524,6530,359397,32.7309444,-96.5950863,75181
810 SPRING MILLS RD MESQUITE TX 75181,4,2.5,1993,3231,7771,348286,32.731823,-96.5914099,75181
406 SOUTHERLAND AVE MESQUITE TX 75150,3,2.0,1982,1512,7244,324942,32.7943222,-96.6016572,75150
318 SOUTHERLAND AVE MESQUITE TX 75150,3,2.0,1983,1522,7244,332080,32.7942916,-96.6005724,75150
1401 BARNHART DR MESQUITE TX 75181,4,2.0,2006,2134,8394,315410,32.7282114,-96.5819047,75181
2501 VAL VERDE WAY  MESQUITE TX 75181,4,3.0,2006,2766,13682,380163,32.7273549,-96.5814876,75181
4740 SALEM DR MESQUITE TX 75150,4,3.0,1958,1383,7775,287574,32.8316417,-96.6398638,75150
2901 CARIBBEAN DR MESQUITE TX 75150,3,1.5,1959,1523,9056,235559,32.8346045,-96.6453312,75150
3200 CARIBBEAN DR MESQUITE TX 75150,2,1.0,1959,1318,7166,223354,32.8317237,-96.6480354,75150
3072 DOGWOOD DR MESQUITE TX 75150,3,1.5,1959,1680,11003,250885,32.8284743,-96.6449166,75150
3346 JAMAICA WAY  MESQUITE TX 75150,3,1.5,1960,1254,8716,241541,32.8282418,-96.6503491,75150
819 SUMNER DR MESQUITE TX 75149,4,3.0,1995,2557,7475,396682,32.7761663,-96.5847111,75149
2614 ROSEWOOD DR MESQUITE TX 75150,3,2.0,1960,1176,7200,269623,32.8228708,-96.6331445,75150
926 LAKESHORE DR MESQUITE TX 75149,4,2.5,1979,2262,15250,295761,32.7560314,-96.6019075,75149
2623 RED RIVER ST MESQUITE TX 75150,3,2.0,1983,1578,7362,275294,32.8016377,-96.6181158,75150
2517 INDEPENDENCE DR MESQUITE TX 75150,4,2.0,1984,1777,7139,293544,32.7983188,-96.6156873,75150
1026 GREEN CANYON DR MESQUITE TX 75150,3,2.0,1981,2485,11330,349822,32.8159296,-96.6125685,75150
425 HARDWOOD TRL MESQUITE TX 75150,4,1.5,1979,2011,7440,272093,32.8194493,-96.6028254,75150
801 NORTON DR MESQUITE TX 75149,4,3.0,1980,2403,9518,301980,32.7595217,-96.6023248,75149
2631 RIO GRANDE PASS  MESQUITE TX 75150,4,2.0,1983,1774,7244,319189,32.8011842,-96.6190308,75150
2702 EAGLE PASS  MESQUITE TX 75150,3,2.0,1984,1640,7706,291489,32.8021294,-96.6181287,75150
1031 PHEASANT DR MESQUITE TX 75150,3,2.0,1983,1517,7222,299947,32.8022638,-96.613858,75150
2520 CROOKED CREEK  MESQUITE TX 75181,3,2.0,1997,1696,7148,327533,32.7487615,-96.5584683,75181
216 ROCKCREST DR MESQUITE TX 75150,3,2.0,1979,1415,7318,265426,32.8167848,-96.5986427,75150
4108 OLEANDER TRL MESQUITE TX 75150,5,2.0,1962,1579,7200,264724,32.8210213,-96.637581,75150
901 MARLIN DR MESQUITE TX 75149,3,2.0,1992,1304,3781,263794,32.7574276,-96.6004056,75149
1029 FIELD TRAIL DR MESQUITE TX 75150,3,2.0,1982,1519,7131,290634,32.8047871,-96.6142727,75150
909 PHEASANT DR MESQUITE TX 75150,4,2.0,1983,1979,8468,317621,32.8016672,-96.6121721,75150
2717 FOXGLEN DR MESQUITE TX 75150,3,2.0,1983,1456,7192,285582,32.8018001,-96.6146906,75150
2816 INDEPENDENCE DR MESQUITE TX 75150,3,2.0,1984,1393,7074,266476,32.8028459,-96.6151976,75150
1423 SANDALWOOD DR MESQUITE TX 75181,3,2.0,1990,1326,6225,270872,32.7448885,-96.543157,75181
3333 BRIAR LN MESQUITE TX 75181,3,2.5,1995,2137,6551,323526,32.7502737,-96.5463365,75181
3312 BRIAR LN MESQUITE TX 75181,3,2.5,1994,2144,5223,366950,32.7498761,-96.547249,75181
3301 COOL SPRINGS CIR MESQUITE TX 75181,3,2.0,1994,1436,8032,295891,32.7485264,-96.5487001,75181
1313 RUTHERFORD DR MESQUITE TX 75149,3,2.0,1972,1280,7200,251240,32.7504966,-96.578151,75149
726 DRANGUET CIR MESQUITE TX 75149,2,2.0,1955,1584,7993,257480,32.7599048,-96.6013026,75149
2400 CATALINA DR MESQUITE TX 75150,3,2.0,1966,1254,7327,236008,32.7986768,-96.6473438,75150
2135 ALOHA DR MESQUITE TX 75150,3,2.0,1967,1574,7436,259982,32.7970456,-96.6487178,75150
233 HARDWOOD TRL MESQUITE TX 75150,3,2.0,1978,1415,7200,246172,32.8196576,-96.5992513,75150
2644 GREENLAND DR MESQUITE TX 75150,3,2.0,1961,1725,8368,309415,32.8257373,-96.636321,75150
1024 FIELD TRAIL DR MESQUITE TX 75150,3,2.0,1982,1511,7113,291060,32.8043052,-96.614068,75150
2705 INDEPENDENCE DR MESQUITE TX 75150,3,2.0,1985,1768,7584,306417,32.8007582,-96.6157421,75150
1504 SAVANNAH ST MESQUITE TX 75149,3,2.0,1988,1306,4042,237328,32.7645399,-96.5791102,75149
1400 FERNWOOD DR MESQUITE TX 75149,3,2.0,2013,2003,8398,366942,32.7815225,-96.6359868,75149
1420 MEADOWCREST DR MESQUITE TX 75149,4,2.0,1969,2412,14606,316395,32.7829353,-96.6365672,75149
2608 BANDERA PL MESQUITE TX 75181,5,3.0,2004,3648,8642,373252,32.7291554,-96.5885489,75181
831 BIG THICKET TRL MESQUITE TX 75149,4,2.0,1995,2328,8246,364289,32.7779094,-96.5846328,75149
2116 BAMBOO ST MESQUITE TX 75150,3,2.0,1967,1384,7327,244423,32.7964723,-96.6485023,75150
2705 PRESTON CREEK  MESQUITE TX 75181,4,2.5,1995,2423,9601,367472,32.7512183,-96.5576583,75181
3113 RIVERVIEW DR MESQUITE TX 75181,5,3.0,1990,2687,7231,399559,32.7375466,-96.5573529,75181
2204 HUMMINGBIRD WAY MESQUITE TX 75181,3,2.0,2007,2313,6268,296932,32.7264458,-96.5282889,75181
305 GREEN CANYON DR MESQUITE TX 75150,3,2.0,1979,1375,7440,240950,32.8163048,-96.5996337,75150
413 GREEN CANYON DR MESQUITE TX 75150,3,2.0,1979,1502,6482,260006,32.8163265,-96.6017198,75150
4309 OLEANDER TRL MESQUITE TX 75150,3,2.0,1962,1792,7200,268639,32.821266,-96.6405878,75150
4332 CHESTNUT DR MESQUITE TX 75150,3,1.5,1960,1713,7200,234570,32.8246626,-96.6341046,75150
2632 GREENLAND DR MESQUITE TX 75150,4,2.0,1961,1731,8381,255813,32.8261056,-96.6360323,75150
2645 GREENLAND DR MESQUITE TX 75150,3,1.5,1961,1731,10128,261116,32.8260261,-96.6367013,75150
913 RUTHERFORD DR MESQUITE TX 75149,3,1.5,1970,1113,7662,257614,32.7542613,-96.5758571,75149
2226 LUAU ST MESQUITE TX 75150,3,2.0,1965,1775,7327,261951,32.7980419,-96.6478714,75150
1651 HANCOCK DR MESQUITE TX 75149,4,2.0,1984,1026,4121,253522,32.7884267,-96.6023456,75149
1505 LIBERTY LN MESQUITE TX 75149,2,2.0,1984,1153,3999,242411,32.7865441,-96.5989245,75149
1409 EASTERN HEIGHTS DR MESQUITE TX 75149,3,1.5,1972,1038,7379,213969,32.7484292,-96.5824052,75149
2511 VIVA DR MESQUITE TX 75150,3,1.5,1966,1305,7771,234262,32.7992426,-96.6475848,75150
2429 CATALINA DR MESQUITE TX 75150,3,2.0,1966,1280,7771,255438,32.7990889,-96.6490188,75150
1501 WILLIAMS CREEK  MESQUITE TX 75181,4,2.5,1997,2298,7148,352595,32.7480218,-96.5591771,75181
3905 O HARE DR MESQUITE TX 75150,3,2.0,1978,1375,9121,264108,32.8179784,-96.6020119,75150
707 BUTTON DR MESQUITE TX 75150,3,2.0,1980,1727,7440,260177,32.8183771,-96.6061008,75150
609 HARDWOOD TRL MESQUITE TX 75150,3,2.0,1979,2011,7200,318556,32.8193536,-96.6050577,75150
2613 WALNUT CREEK DR MESQUITE TX 75181,3,2.0,1997,1843,7475,310490,32.7502852,-96.5587185,75181
903 MEANDERING WAY  MESQUITE TX 75150,3,2.0,1982,1602,7906,309993,32.815496,-96.6091468,75150
1113 VISTA DR MESQUITE TX 75149,3,1.0,1959,1212,5998,226756,32.7571296,-96.5847827,75149
4502 HARBINGER DR MESQUITE TX 75150,3,2.0,1985,1794,9352,349953,32.8259282,-96.6180079,75150
4510 HARBINGER DR MESQUITE TX 75150,3,2.0,1983,2228,9797,348920,32.8266098,-96.6180353,75150
1901 BUFFALO HILL DR MESQUITE TX 75149,3,2.5,2022,1376,2993,285196,32.766638,-96.6246199,75149
1205 JUANITA ST MESQUITE TX 75149,3,1.0,1961,1682,7919,274753,32.784517,-96.621541,75149
1400 BARBARA ST MESQUITE TX 75149,2,1.0,1959,908,8102,187258,32.7870501,-96.6192873,75149
1036 PAINTBRUSH ST MESQUITE TX 75149,3,2.0,1983,1241,5288,288460,32.7712214,-96.5835732,75149
2800 BEAU DR MESQUITE TX 75181,3,2.0,1988,1388,7244,267779,32.7542847,-96.5569673,75181
1136 RANCHO DR MESQUITE TX 75149,3,1.0,1961,1175,7501,170237,32.7528975,-96.5892877,75149
621 NEW MARKET RD MESQUITE TX 75149,3,2.0,1956,1983,7741,296797,32.7562173,-96.6063861,75149
1233 JUANITA ST MESQUITE TX 75149,3,1.5,1961,1026,8102,216616,32.7853139,-96.6205811,75149
1413 JUANITA ST MESQUITE TX 75149,4,1.5,1956,1376,8102,246347,32.7870571,-96.618496,75149
3022 ANTELOPE DR MESQUITE TX 75181,4,2.5,1997,2610,7244,395930,32.7384373,-96.5577178,75181
3111 ANTELOPE DR MESQUITE TX 75181,4,2.0,1997,2225,7244,366871,32.738226,-96.5567785,75181
1101 MIRANDA DR MESQUITE TX 75149,3,1.0,1960,1037,7200,207108,32.7532266,-96.5854916,75149
2824 INGRAM CIR MESQUITE TX 75181,4,2.5,2006,2349,7540,351448,32.7261407,-96.5908103,75181
215 KIMBELL ST MESQUITE TX 75149,3,1.0,1938,824,6399,175943,32.76796,-96.5967371,75149
2709 RED RIVER ST MESQUITE TX 75150,3,2.0,1983,1860,7362,262487,32.8020748,-96.6189952,75150
1504 LAREDO LN MESQUITE TX 75150,3,2.0,1983,1456,7283,272969,32.7992905,-96.6185361,75150
1017 FIELD TRAIL DR MESQUITE TX 75150,3,2.0,1982,1694,7192,292172,32.8047327,-96.6136922,75150
4328 OLEANDER TRL MESQUITE TX 75150,3,2.0,1962,1411,7802,256596,32.8221925,-96.6410317,75150
2804 EL PASO WAY  MESQUITE TX 75150,3,2.5,1984,2485,8673,396571,32.8010839,-96.6219948,75150
2201 ANITA DR MESQUITE TX 75149,3,1.0,1960,1368,7623,171373,32.7910496,-96.6299721,75149
220 MELINDA DR MESQUITE TX 75149,3,2.0,1972,1288,7200,282390,32.773341,-96.5960389,75149
208 E GRUBB DR MESQUITE TX 75149,3,2.0,1973,1335,7623,257275,32.7750158,-96.5966632,75149
2128 BUFFALO HILL DR MESQUITE TX 75149,3,2.0,2022,1542,3119,307790,32.76423,-96.6241704,75149
2025 CROOKED BOW DR MESQUITE TX 75149,3,2.5,2022,1675,1472,309371,32.766915,-96.624498,75149
1004 PRIMROSE ST MESQUITE TX 75149,3,2.0,1986,1612,7270,301095,32.7728421,-96.5848662,75149
806 LEYENDA DR MESQUITE TX 75149,3,1.0,1970,961,7196,222756,32.7579178,-96.5889206,75149
216 MONTEGO DR MESQUITE TX 75149,2,2.0,1973,1504,3241,168699,32.7800458,-96.5947942,75149
2113 CROOKED BOW DR MESQUITE TX 75149,3,2.5,2022,1409,1472,287864,32.766659,-96.625196,75149
1949 BUFFALO HILL DR MESQUITE TX 75149,3,2.5,2022,1763,1843,308550,32.765871,-96.6245811,75149
2049 DOVE CREEK LN MESQUITE TX 75149,4,2.5,2022,2218,3999,390005,32.764166,-96.6253808,75149
2041 DOVE CREEK LN MESQUITE TX 75149,4,2.5,2021,1910,3999,359380,32.7643855,-96.6253808,75149
1213 NIMITZ WAY  MESQUITE TX 75181,5,3.0,2005,2826,15577,410019,32.7245364,-96.5891626,75181
3229 FOUNTAIN DR MESQUITE TX 75181,4,2.0,2000,2636,23731,299475,32.7532902,-96.5486918,75181
4621 MEADOWVIEW DR MESQUITE TX 75150,3,2.0,1984,1705,7671,306790,32.8284151,-96.6141752,75150
1200 GONZALES DR MESQUITE TX 75150,3,2.5,1985,2406,8490,381938,32.8219901,-96.6162751,75150
1018 CASA DR MESQUITE TX 75149,3,1.0,1958,1220,7196,214288,32.7553593,-96.5858997,75149
2124 BUFFALO HILL DR MESQUITE TX 75149,3,2.0,2022,1292,3119,304921,32.7643387,-96.6241913,75149
7410 PROVIDENCE DR ROWLETT TX 75089,4,2.5,2005,2964,8002,465754,32.9197776,-96.5308728,75089
7610 PROVIDENCE DR ROWLETT TX 75089,3,2.0,2004,2290,8002,420942,32.9197813,-96.5291224,75089
6706 PROVIDENCE DR ROWLETT TX 75089,4,3.5,2004,3152,10951,509053,32.9199299,-96.5279555,75089
6710 PROVIDENCE DR ROWLETT TX 75089,4,2.5,2005,2978,8046,439460,32.9201469,-96.5279972,75089
8006 MARQUETT DR ROWLETT TX 75089,4,2.0,2003,2992,8002,414609,32.920514,-96.5251634,75089
8014 MARQUETT DR ROWLETT TX 75089,3,2.0,2004,1980,10054,367011,32.9204941,-96.524705,75089
7805 WILMINGTON DR ROWLETT TX 75089,5,3.0,2002,3322,8002,443533,32.9201805,-96.5269345,75089
7910 AMESBURY LN ROWLETT TX 75089,4,2.0,2004,1912,7200,367966,32.9212311,-96.5257805,75089
308 SIERRA WAY  CEDAR HILL TX 75104,3,2.0,1988,1624,5001,231261,32.6123823,-96.948718,75104
426 DOLLINS ST CEDAR HILL TX 75104,2,2.0,1984,1054,3794,189198,32.5805152,-96.9389025,75104
7201 BEVERLY DR ROWLETT TX 75089,4,2.0,2005,2122,7279,361130,32.9246282,-96.5252884,75089
7217 COLFAX DR ROWLETT TX 75089,4,2.0,2003,3242,7784,497767,32.9239942,-96.5239964,75089
8105 HARTFORD DR ROWLETT TX 75089,3,2.0,2003,1857,7401,384543,32.9233961,-96.5245383,75089
8117 HARTFORD DR ROWLETT TX 75089,4,2.0,2003,2966,7396,435778,32.9231196,-96.5239549,75089
8209 HARTFORD DR ROWLETT TX 75089,4,2.0,2003,2966,7427,432820,32.9228892,-96.5233299,75089
8305 HARTFORD DR ROWLETT TX 75089,5,3.0,2003,2710,8499,464761,32.92249,-96.5225798,75089
6806 WESTOVER DR ROWLETT TX 75089,4,2.5,2002,2928,8625,454123,32.9217043,-96.522934,75089
6710 AMESBURY LN ROWLETT TX 75089,3,2.5,2003,2184,7614,402385,32.9208289,-96.5233297,75089
6902 AMESBURY LN ROWLETT TX 75089,4,3.5,2004,2800,8986,437791,32.9216118,-96.5242883,75089
7510 PROVIDENCE DR ROWLETT TX 75089,4,2.5,2005,3013,8002,483420,32.9197564,-96.5300184,75089
8005 MARQUETT DR ROWLETT TX 75089,3,2.0,2002,3320,8002,493194,32.9209151,-96.5250384,75089
7813 AMESBURY LN ROWLETT TX 75089,5,2.0,2003,3464,8002,482615,32.9216971,-96.5264344,75089
7805 WESTOVER DR ROWLETT TX 75089,3,2.5,2005,1965,7492,378936,32.9224392,-96.5269137,75089
6405 FAIRFIELD DR ROWLETT TX 75089,4,2.0,2002,3351,8385,462464,32.9231349,-96.5258454,75089
7101 HANDEN DR ROWLETT TX 75089,4,3.5,2008,3432,8024,474437,32.9224087,-96.5312604,75089
7413 HANDEN DR ROWLETT TX 75089,4,3.5,2009,3444,7200,569544,32.923417,-96.5304352,75089
7013 BICKERS DR ROWLETT TX 75089,4,3.5,2005,2872,7209,411797,32.922227,-96.5293728,75089
7610 KALLAN DR ROWLETT TX 75089,3,2.0,2005,2063,8303,380780,32.9204892,-96.5289974,75089
7609 PROVIDENCE DR ROWLETT TX 75089,4,3.0,2004,3362,8246,472913,32.9202284,-96.5289557,75089
7206 WATERBURY DR ROWLETT TX 75089,4,3.5,2008,3360,10123,506968,32.9216125,-96.5330174,75089
6705 WESTOVER DR ROWLETT TX 75089,3,2.0,2004,1999,7370,378069,32.9208429,-96.522917,75089
6706 AMESBURY LN ROWLETT TX 75089,3,2.5,2003,2685,7423,465551,32.9206429,-96.5232698,75089
6705 ESSEX DR ROWLETT TX 75089,2,2.5,2003,2652,7771,417945,32.9198826,-96.5276013,75089
6801 AMESBURY LN ROWLETT TX 75089,5,4.0,2004,3349,8067,489612,32.9210484,-96.5241633,75089
7909 MARQUETT DR ROWLETT TX 75089,5,3.0,2002,3322,8002,439861,32.9209428,-96.5257677,75089
7901 MARQUETT DR ROWLETT TX 75089,4,2.0,2004,2054,8028,419074,32.920921,-96.5261844,75089
409 DOLLINS ST CEDAR HILL TX 75104,2,2.0,1983,1054,3912,357499,32.5800945,-96.9398383,75104
723 KRISTI LN CEDAR HILL TX 75104,4,2.0,1996,1863,9100,279252,32.5756545,-96.9377987,75104
7305 COLFAX DR ROWLETT TX 75089,4,2.5,2005,2323,7784,384811,32.9237505,-96.5233965,75089
7306 COLFAX DR ROWLETT TX 75089,4,2.5,2005,2502,7414,408054,32.9233853,-96.5236867,75089
8205 HARTFORD DR ROWLETT TX 75089,4,2.0,2003,3242,7383,473897,32.9230099,-96.5235382,75089
6810 WESTOVER DR ROWLETT TX 75089,5,4.0,2003,3464,8625,527685,32.921871,-96.5231007,75089
6613 WESTOVER DR ROWLETT TX 75089,3,2.0,2004,1904,7370,391516,32.9205064,-96.5227881,75089
6814 AMESBURY LN ROWLETT TX 75089,4,2.0,2004,1903,7919,365452,32.9215676,-96.5240674,75089
6805 ESSEX DR ROWLETT TX 75089,4,2.0,2003,2227,8028,389768,32.9206717,-96.5276013,75089
7914 MARQUETT DR ROWLETT TX 75089,4,2.0,2004,1912,7200,373403,32.9204988,-96.5255979,75089
7802 AMESBURY LN ROWLETT TX 75089,4,3.5,2003,3486,8250,490907,32.9212195,-96.5271846,75089
7801 WESTOVER DR ROWLETT TX 75089,3,2.0,2005,2018,7510,411882,32.9224261,-96.5271637,75089
6413 FAIRFIELD DR ROWLETT TX 75089,3,2.0,2002,2284,8120,408379,32.9233989,-96.5261636,75089
6421 FAIRFIELD DR ROWLETT TX 75089,4,3.5,2002,3716,9862,524358,32.9237093,-96.5265154,75089
7013 HANDEN DR ROWLETT TX 75089,4,3.5,2010,3392,8024,495376,32.9222353,-96.531261,75089
7401 HANDEN DR ROWLETT TX 75089,4,3.5,2006,3401,12336,519143,32.9234447,-96.5311645,75089
7409 HANDEN DR ROWLETT TX 75089,5,3.5,2009,3407,8002,543372,32.9234214,-96.5306567,75089
7509 HANDEN DR ROWLETT TX 75089,4,2.5,2009,2915,8002,499369,32.9234518,-96.5297684,75089
7601 HANDEN DR ROWLETT TX 75089,3,2.5,2009,3539,7989,516523,32.9234612,-96.5293527,75089
7109 BICKERS DR ROWLETT TX 75089,4,2.5,2005,3995,7209,525660,32.9227722,-96.5293516,75089
7010 HANDEN DR ROWLETT TX 75089,4,2.0,2008,2290,7200,400735,32.922022,-96.5307387,75089
7410 HANDEN DR ROWLETT TX 75089,3,2.5,2007,2298,9439,449011,32.9229864,-96.5307061,75089
7109 SALEM CT ROWLETT TX 75089,4,3.5,2006,3419,10764,527297,32.92271,-96.5300287,75089
7606 AMESBURY LN ROWLETT TX 75089,4,2.5,2005,3286,8002,440992,32.9212904,-96.5291849,75089
7213 COLFAX DR ROWLETT TX 75089,4,2.0,2004,2325,7784,414292,32.924117,-96.5241633,75089
8301 HARTFORD DR ROWLETT TX 75089,3,2.0,2003,1857,7423,375420,32.9226103,-96.5227845,75089
8118 HARTFORD DR ROWLETT TX 75089,4,2.0,2004,1920,8289,358667,32.9227932,-96.52433,75089
7114 MELTON DR ROWLETT TX 75089,3,2.5,2006,2212,8255,409047,32.9229754,-96.5250384,75089
7006 WESTOVER DR ROWLETT TX 75089,5,3.0,2002,3439,9853,485773,32.9224295,-96.52458,75089
6910 WESTOVER DR ROWLETT TX 75089,3,2.0,2002,3135,7841,467413,32.9223216,-96.5239024,75089
6902 WESTOVER DR ROWLETT TX 75089,4,2.5,2002,2696,8433,478631,32.9221222,-96.5235231,75089
6702 WESTOVER DR ROWLETT TX 75089,3,2.0,2002,2406,7985,385387,32.9207703,-96.5223506,75089
6709 WESTOVER DR ROWLETT TX 75089,3,2.0,2004,1942,8006,379079,32.9210504,-96.5230269,75089
7802 MARQUETT DR ROWLETT TX 75089,4,2.0,2002,2355,8250,409067,32.9205225,-96.5271012,75089
7609 KALLAN DR ROWLETT TX 75089,4,2.0,2005,2694,7958,407774,32.9209528,-96.5289349,75089
7602 KALLAN DR ROWLETT TX 75089,4,2.5,2005,2641,8028,387642,32.9205113,-96.5294141,75089
7306 STATFORD DR ROWLETT TX 75089,4,2.0,2008,2290,8512,410240,32.9229923,-96.5318522,75089
7606 WESTOVER DR ROWLETT TX 75089,3,2.5,2005,2289,7719,411209,32.922018,-96.5286848,75089
7910 WESTOVER DR ROWLETT TX 75089,5,3.0,2003,3242,8002,463421,32.9220036,-96.525601,75089
8006 WESTOVER DR ROWLETT TX 75089,3,2.0,2003,2228,8002,406041,32.9220384,-96.5249342,75089
8009 AMESBURY LN ROWLETT TX 75089,4,2.0,2003,2966,9348,444553,32.9216964,-96.5247675,75089
7705 AMESBURY LN ROWLETT TX 75089,4,2.0,2004,2290,7205,424854,32.9217161,-96.527845,75089
7001 HANDEN DR ROWLETT TX 75089,4,3.5,2008,3432,9439,593348,32.9217077,-96.5312687,75089
1110 HOLLY LN CEDAR HILL TX 75104,3,2.0,1984,1378,7200,232495,32.6103257,-96.9290691,75104
6801 WESTOVER DR ROWLETT TX 75089,3,2.0,2004,1823,8072,359353,32.9214031,-96.5232465,75089
6810 AMESBURY LN ROWLETT TX 75089,4,2.5,2003,2623,7919,406670,32.9214561,-96.5239151,75089
6802 PROVIDENCE DR ROWLETT TX 75089,4,2.0,2004,2136,8002,390605,32.9204976,-96.5279972,75089
6810 PROVIDENCE DR ROWLETT TX 75089,3,2.5,2005,3160,8002,467886,32.920913,-96.528018,75089
6701 ESSEX DR ROWLETT TX 75089,4,3.5,2004,3070,8137,474656,32.9197073,-96.5276013,75089
7910 MARQUETT DR ROWLETT TX 75089,3,2.0,2003,1857,7200,383599,32.9205209,-96.5258719,75089
8001 WILMINGTON DR ROWLETT TX 75089,4,3.0,2003,3242,8002,476646,32.9201699,-96.5252669,75089
7905 WILMINGTON DR ROWLETT TX 75089,4,2.0,2003,2966,8002,432708,32.9202001,-96.5259562,75089
7809 WILMINGTON DR ROWLETT TX 75089,4,2.5,2002,2821,8002,442780,32.9201727,-96.5266636,75089
7006 STATFORD DR ROWLETT TX 75089,4,2.5,2006,2283,7214,414464,32.9230196,-96.5346863,75089
803 CLOVER HILL LN CEDAR HILL TX 75104,3,2.0,1987,1624,7741,286334,32.6126907,-96.9314069,75104
921 BROOKS DR CEDAR HILL TX 75104,3,2.0,2004,1865,7009,296706,32.5696624,-96.923213,75104
603 KRISTI LN CEDAR HILL TX 75104,3,2.0,1996,1260,7000,276116,32.5783113,-96.9341433,75104
7010 WESTOVER DR ROWLETT TX 75089,4,3.5,2003,3026,10964,495804,32.9224624,-96.5247884,75089
6802 WESTOVER DR ROWLETT TX 75089,4,2.0,2002,2271,8621,399492,32.9215377,-96.5227673,75089
7414 PROVIDENCE DR ROWLETT TX 75089,5,4.0,2004,3322,8002,557634,32.9197446,-96.5306644,75089
7702 PROVIDENCE DR ROWLETT TX 75089,4,2.5,2005,3003,8006,459384,32.9198052,-96.528664,75089
7810 AMESBURY LN ROWLETT TX 75089,4,2.0,2002,3302,8059,471364,32.9212456,-96.5266845,75089
8217 HARTFORD DR ROWLETT TX 75089,5,3.0,2004,3380,8330,459285,32.9226902,-96.5229589,75089
8306 HARTFORD DR ROWLETT TX 75089,4,2.5,2003,2873,7876,440322,32.9222261,-96.5230173,75089
8202 HARTFORD DR ROWLETT TX 75089,3,2.5,2004,2124,7706,376441,32.9227172,-96.5241526,75089
7709 AMESBURY LN ROWLETT TX 75089,4,3.5,2005,3477,8002,443826,32.9217037,-96.5276164,75089
7609 AMESBURY LN ROWLETT TX 75089,4,2.5,2005,2961,7200,482078,32.9216573,-96.5284556,75089
7601 AMESBURY LN ROWLETT TX 75089,4,3.0,2005,2692,8067,464998,32.9217189,-96.5289557,75089
7813 WESTOVER DR ROWLETT TX 75089,4,3.5,2004,3502,8228,477291,32.9224631,-96.5264553,75089
7101 MELTON DR ROWLETT TX 75089,4,2.5,2005,2646,8364,439859,32.9224376,-96.5256843,75089
6509 WESTOVER DR ROWLETT TX 75089,3,2.0,2000,1829,7623,381272,32.9196262,-96.5224339,75089
6405 WESTOVER DR ROWLETT TX 75089,5,2.5,2001,2616,10794,441620,32.9187063,-96.5220706,75089
7902 MUNICH DR ROWLETT TX 75089,4,2.5,2001,2870,10759,429286,32.915387,-96.5251217,75089
6413 AMESBURY LN ROWLETT TX 75089,4,2.0,2001,2299,9287,384556,32.9187815,-96.5230798,75089
6802 AMESBURY LN ROWLETT TX 75089,4,2.5,2004,2974,7919,453550,32.9211976,-96.5235682,75089
7506 PROVIDENCE DR ROWLETT TX 75089,4,2.5,2005,2616,8002,430110,32.9197686,-96.530206,75089
6806 PROVIDENCE DR ROWLETT TX 75089,4,2.5,2005,2289,8002,396387,32.9207168,-96.5279972,75089
6713 ESSEX DR ROWLETT TX 75089,4,2.0,2002,1857,8028,365317,32.9202542,-96.5276221,75089
8013 WILMINGTON DR ROWLETT TX 75089,4,3.0,2003,3242,9967,470578,32.9201959,-96.5245383,75089
7813 WILMINGTON DR ROWLETT TX 75089,3,2.0,2002,2258,8002,386088,32.9202066,-96.5264344,75089
7914 AMESBURY LN ROWLETT TX 75089,3,2.0,2004,1999,8002,394692,32.9212397,-96.5255385,75089
7913 MARQUETT DR ROWLETT TX 75089,5,2.5,2002,2687,7200,435277,32.9209558,-96.5255176,75089
8010 WESTOVER DR ROWLETT TX 75089,4,2.0,2003,2966,8625,416792,32.9220284,-96.524705,75089
7901 WESTOVER DR ROWLETT TX 75089,5,3.0,2004,3322,8211,493412,32.9224115,-96.5261844,75089
7105 MELTON DR ROWLETT TX 75089,4,2.5,2005,2496,7196,420251,32.9226173,-96.525601,75089
8002 MARQUETT DR ROWLETT TX 75089,4,2.0,2004,2149,8002,410557,32.9205274,-96.5254289,75089
8009 WILMINGTON DR ROWLETT TX 75089,4,2.0,2003,2227,8107,420920,32.920212,-96.524814,75089
7909 WILMINGTON DR ROWLETT TX 75089,3,2.0,2002,2032,7200,383060,32.9201807,-96.525737,75089
6417 FAIRFIELD DR ROWLETT TX 75089,4,3.5,2003,3124,8995,483456,32.9235217,-96.5263303,75089
7501 HANDEN DR ROWLETT TX 75089,3,2.5,2009,3815,7200,565559,32.9234487,-96.5302476,75089
7010 SALEM CT ROWLETT TX 75089,4,3.5,2006,3419,7505,528043,32.922031,-96.5297836,75089
7502 AMESBURY LN ROWLETT TX 75089,4,3.5,2004,3308,8002,493145,32.9212295,-96.5303518,75089
7613 KALLAN DR ROWLETT TX 75089,4,3.5,2005,3096,8185,514357,32.9209659,-96.5286848,75089
7502 KALLAN DR ROWLETT TX 75089,4,2.5,2005,2276,8028,428571,32.9205238,-96.5304352,75089
7102 RIDGEVIEW DR ROWLETT TX 75089,3,2.5,1978,1781,6551,330611,32.9136456,-96.5341236,75089
7306 RIDGEVIEW DR ROWLETT TX 75089,3,2.0,1978,1531,6551,273663,32.9136646,-96.5320814,75089
7118 HARVEST HILL DR ROWLETT TX 75089,3,2.5,1978,1823,6865,347378,32.9144066,-96.5335125,75089
7309 HARVEST HILL DR ROWLETT TX 75089,3,2.0,1978,1713,6957,272765,32.914822,-96.5318239,75089
7209 HARVEST HILL DR ROWLETT TX 75089,3,2.0,1978,1696,6957,320718,32.9148665,-96.5329294,75089
7105 HARVEST HILL DR ROWLETT TX 75089,3,2.0,1978,1891,6957,332781,32.9148513,-96.5341948,75089
6801 HARVEST HILL DR ROWLETT TX 75089,3,2.0,1973,1623,8625,346312,32.9151349,-96.536666,75089
6910 ALISSA DR ROWLETT TX 75089,3,2.0,1995,1302,6199,299840,32.915198,-96.5354573,75089
7202 MONTEGO DR ROWLETT TX 75089,5,3.0,1998,3004,7919,440068,32.9159645,-96.5333734,75089
6305 SHORECREST DR ROWLETT TX 75089,3,2.0,1995,1453,8581,332332,32.9167852,-96.5361242,75089
6305 BOBBIE LN ROWLETT TX 75089,5,2.5,1998,3000,6050,487722,32.9165577,-96.5341861,75089
6309 BOBBIE LN ROWLETT TX 75089,3,2.0,1997,1856,8028,361909,32.9167539,-96.534207,75089
7814 AMESBURY LN ROWLETT TX 75089,4,3.0,2003,2623,8028,437097,32.9212587,-96.5264344,75089
6701 AMESBURY LN ROWLETT TX 75089,4,2.0,2005,1904,8207,366096,32.9203709,-96.5237049,75089
7405 HANDEN DR ROWLETT TX 75089,4,2.5,2009,2328,8002,418697,32.9234829,-96.5308519,75089
7702 AMESBURY LN ROWLETT TX 75089,4,3.0,2004,3502,8242,495494,32.9212419,-96.5284348,75089
7601 KALLAN DR ROWLETT TX 75089,4,2.5,2005,2286,8002,390761,32.9209267,-96.529435,75089
7505 KALLAN DR ROWLETT TX 75089,4,3.5,2004,3310,8002,469451,32.9209565,-96.5301226,75089
7413 KALLAN DR ROWLETT TX 75089,4,2.5,2005,2634,8002,453384,32.9209304,-96.5306227,75089
8101 FREEMAN DR ROWLETT TX 75089,4,2.5,2000,3083,10846,482428,32.9181703,-96.5238716,75089
6506 MARQUETT CT ROWLETT TX 75089,4,2.5,2000,2570,10598,451825,32.9186196,-96.5236632,75089
6514 MARQUETT CT ROWLETT TX 75089,5,3.0,2000,3188,12702,465855,32.9190176,-96.5236309,75089
3517 SHERYL DR MESQUITE TX 75150,3,1.0,1959,972,7802,209739,32.8140751,-96.6525579,75150
413 CONGER DR MESQUITE TX 75149,4,2.0,1983,1551,6360,297827,32.7777643,-96.5920398,75149
2404 SHILOH LN MESQUITE TX 75181,4,2.5,1995,2874,8969,377521,32.7455385,-96.5588019,75181
3616 STRAYHORN DR MESQUITE TX 75150,3,2.0,1956,1218,7623,249673,32.8343662,-96.6537663,75150
3551 LA PRADA DR MESQUITE TX 75150,3,1.0,1957,1176,7501,230151,32.8330746,-96.651681,75150
3649 LA PRADA DR MESQUITE TX 75150,3,1.5,1958,1108,7501,230599,32.8308613,-96.6537694,75150
3008 MILLER PL MESQUITE TX 75150,3,2.0,1983,1515,7403,286492,32.8061619,-96.6437481,75150
1053 CAVERN DR MESQUITE TX 75181,4,2.0,2005,2109,8172,328656,32.7281728,-96.5893294,75181
2519 WANDA DR MESQUITE TX 75149,3,1.0,1962,960,7558,222729,32.7855725,-96.6349895,75149
2761 WINDSWEPT LN MESQUITE TX 75181,4,2.5,1993,2509,8080,361810,32.7318645,-96.5959624,75181
2514 WANDA DR MESQUITE TX 75149,3,1.5,1961,1068,7200,275787,32.7853751,-96.6345262,75149
2809 CIELO CT MESQUITE TX 75181,4,2.5,2000,2883,12711,423113,32.7407639,-96.5686425,75181
2008 SAN SIMEON DR MESQUITE TX 75181,4,3.0,2000,2549,9980,375848,32.7438134,-96.5720412,75181
406 WELLINGTON DR MESQUITE TX 75149,3,2.0,1986,1872,5340,263140,32.7458609,-96.5914702,75149
4429 OLEANDER TRL MESQUITE TX 75150,3,2.0,1959,1225,9217,243093,32.8231881,-96.64279,75150
4528 SARAZEN DR MESQUITE TX 75150,3,1.5,1960,1508,7919,249566,32.8263194,-96.6417643,75150
1427 CREEKWOOD LN MESQUITE TX 75149,3,2.0,1978,1392,7244,279161,32.747592,-96.5940341,75149
1813 DEL OAK DR MESQUITE TX 75149,4,2.0,1959,1920,7501,272406,32.7432792,-96.6160406,75149
537 HORSE SHOE BEND  MESQUITE TX 75149,3,2.0,1986,1243,3994,257334,32.7609235,-96.5808071,75149
911 E GRUBB DR MESQUITE TX 75149,4,2.5,1995,2893,9065,386966,32.775102,-96.5834423,75149
846 BIG THICKET TRL MESQUITE TX 75149,5,3.0,1996,3180,10106,466641,32.7775749,-96.5839303,75149
2533 NORTHVIEW DR MESQUITE TX 75150,3,1.5,1965,1239,7318,223745,32.796668,-96.6391607,75150
6009 TETON DR MESQUITE TX 75150,3,2.0,1982,1574,7318,292137,32.8432556,-96.623691,75150
3642 PALM DR MESQUITE TX 75150,3,1.0,1961,960,7802,191034,32.7986812,-96.6515196,75150
1707 CARNATION DR MESQUITE TX 75149,2,1.0,1957,788,8599,173757,32.7573554,-96.6239902,75149
814 LILAC LN MESQUITE TX 75149,2,1.0,1957,775,8607,191506,32.759319,-96.6247978,75149
1804 SANDCASTLE TRL MESQUITE TX 75149,3,2.0,1986,1243,7148,285876,32.7582608,-96.5741055,75149
4816 MONARCH DR MESQUITE TX 75181,3,2.5,2004,2858,8616,427410,32.7187754,-96.5385208,75181
924 VIA BARCELONA  MESQUITE TX 75150,4,4.0,2016,2648,8729,392565,32.8228998,-96.6110246,75150
2624 MONTICELLO DR MESQUITE TX 75149,4,2.5,1968,2093,9121,256544,32.7805984,-96.6383626,75149
3302 BITTER CREEK DR MESQUITE TX 75181,4,2.5,1995,1732,5576,280422,32.7505987,-96.5477387,75181
1706 ROSBURY CT MESQUITE TX 75181,4,2.5,1995,2636,7296,375967,32.7477687,-96.5496982,75181
6113 TETON DR MESQUITE TX 75150,3,2.0,1981,1452,13038,288779,32.8446812,-96.6240495,75150
2408 TRENTON DR MESQUITE TX 75150,3,2.0,1984,1486,7192,265171,32.7976084,-96.6139121,75150
825 COLCHESTER DR MESQUITE TX 75149,2,1.0,1984,1114,3960,211225,32.773475,-96.606997,75149
1505 STILLMEADOW DR MESQUITE TX 75181,3,2.0,1990,1339,5994,269073,32.7451466,-96.5443356,75181
2841 FANTAIL DR MESQUITE TX 75181,4,3.5,2006,3259,9509,399596,32.7181111,-96.5348321,75181
6512 BROOK MEADOW DR MESQUITE TX 75150,4,2.5,1980,1930,7680,299582,32.8482613,-96.6275084,75150
1618 MEADOWGLEN LN MESQUITE TX 75150,3,2.5,1979,1774,7440,309788,32.8463668,-96.6270958,75150
1305 DEVONSHIRE LN MESQUITE TX 75150,3,2.0,1981,1474,8734,323318,32.8157638,-96.6157623,75150
1533 ALLEN DR MESQUITE TX 75149,4,2.0,1999,1837,6408,311606,32.7528734,-96.6205029,75149
1336 MAPLE RIDGE DR MESQUITE TX 75149,3,2.0,2000,1571,7362,239924,32.7514726,-96.6213323,75149
1021 COCHRAN DR MESQUITE TX 75149,3,2.0,1998,1692,7139,302445,32.7540741,-96.5727293,75149
4718 SNOW DR MESQUITE TX 75150,3,2.0,1970,1942,5088,317353,32.8322203,-96.6363636,75150
1713 ROSE LN MESQUITE TX 75149,2,1.0,1957,778,8181,179044,32.7565507,-96.6243935,75149
3600 FLAMINGO WAY  MESQUITE TX 75150,3,1.0,1961,1264,7532,257559,32.7998825,-96.6520145,75150
3920 EMERALD DR MESQUITE TX 75150,4,2.0,1962,1480,7196,249119,32.8015539,-96.6562679,75150
2853 INGRAM CIR MESQUITE TX 75181,4,2.5,2006,2349,7231,350453,32.7257795,-96.5914152,75181
405 BIRCHWOOD CIR MESQUITE TX 75149,3,1.5,1967,1031,7200,220052,32.7632709,-96.5874583,75149
1016 BIRCHWOOD DR MESQUITE TX 75149,3,2.0,1972,1337,10202,269790,32.7639987,-96.5853628,75149
501 PADDY ST MESQUITE TX 75149,3,1.0,1954,1716,7200,246418,32.7622656,-96.589534,75149
801 PECAN DR MESQUITE TX 75149,3,1.0,1951,1120,8002,208505,32.761893,-96.6085626,75149
1539 HANCOCK DR MESQUITE TX 75149,3,2.5,1984,1468,4199,239973,32.7868995,-96.6005099,75149
2426 VIVA DR MESQUITE TX 75150,3,2.0,1965,1919,7327,239362,32.7992039,-96.6467555,75150
2210 ALOHA DR MESQUITE TX 75150,3,2.0,1966,1503,6991,264907,32.797761,-96.648809,75150
2321 NORTHVIEW DR MESQUITE TX 75150,4,2.0,1969,1813,7606,312776,32.800807,-96.6356539,75150
4819 PALOS VERDES DR MESQUITE TX 75150,2,2.0,1984,1288,3167,242678,32.8305615,-96.6121138,75150
3107 BERKSHIRE DR MESQUITE TX 75150,3,2.0,1976,1639,7797,305168,32.8101291,-96.6467576,75150
4511 JULIAN DR MESQUITE TX 75150,3,2.0,1997,2264,7937,352323,32.8263687,-96.6014069,75150
121 BRUNSWICK LN MESQUITE TX 75149,3,1.5,1961,936,7200,211061,32.7669665,-96.6369493,75149
312 ROLLINGWOOD DR MESQUITE TX 75149,2,1.0,1955,1213,10319,206178,32.76466,-96.6381995,75149
2120 VALLEY FALLS AVE MESQUITE TX 75181,5,2.5,1997,2874,7200,383569,32.7355292,-96.5972387,75181
4324 EVENING SUN DR MESQUITE TX 75181,4,2.0,2020,2056,6120,408264,32.7219044,-96.5480039,75181
3253 PARK RIDGE DR MESQUITE TX 75181,6,4.0,2021,4069,9627,589871,32.7199467,-96.5531108,75181
1120 CEDARCREST DR MESQUITE TX 75149,3,2.0,1999,1320,6194,209718,32.7537738,-96.6184944,75149
1510 CEDARCREST CIR MESQUITE TX 75149,3,2.0,1999,1706,8111,306875,32.7540772,-96.619326,75149
2805 GOLDEN MEADOW AVE MESQUITE TX 75181,4,2.5,2000,3021,7501,333172,32.7351939,-96.5990571,75181
1301 RIVERCREST DR MESQUITE TX 75181,5,3.0,1993,3636,8072,393473,32.7503563,-96.5637,75181
204 BRUNSWICK LN MESQUITE TX 75149,3,1.0,1955,933,7200,226402,32.7663354,-96.636651,75149
305 BRUNSWICK LN MESQUITE TX 75149,3,1.0,1955,1315,7200,205667,32.7652354,-96.6375277,75149
2441 LINDALE LN MESQUITE TX 75149,4,1.0,1970,1176,7802,212742,32.7352958,-96.6160635,75149
1404 MELANIE LN MESQUITE TX 75149,3,1.0,1969,1176,8699,173318,32.7372194,-96.6171305,75149
1420 RUSK DR MESQUITE TX 75149,3,1.5,1962,1046,7501,210458,32.7397393,-96.6188732,75149
2104 NAROBI PL MESQUITE TX 75149,2,1.0,1961,942,7501,221741,32.7404366,-96.6199551,75149
1318 ATHENS DR MESQUITE TX 75149,3,2.0,2018,1602,7501,335313,32.7383628,-96.6175513,75149
1226 ATHENS DR MESQUITE TX 75149,4,1.0,1961,1392,7501,199686,32.738206,-96.6165917,75149
2108 NAROBI PL MESQUITE TX 75149,3,1.5,1961,1540,7501,235559,32.7402632,-96.6199134,75149
2721 HYACINTH DR MESQUITE TX 75181,3,2.0,1997,1777,6569,293372,32.7393169,-96.5387709,75181
4809 LAS LOMAS DR MESQUITE TX 75150,3,2.0,1983,1897,8189,306966,32.8310091,-96.6036808,75150
216 DARIEN DR MESQUITE TX 75149,3,1.0,1956,1251,8163,221457,32.7656782,-96.6389472,75149
2220 AVIS ST MESQUITE TX 75149,3,1.5,1961,1384,7501,216576,32.738384,-96.614751,75149
1508 RUSK DR MESQUITE TX 75149,2,1.0,1961,957,7501,214736,32.7398634,-96.6196655,75149
1215 ATHENS DR MESQUITE TX 75149,3,1.0,1961,1076,8751,191573,32.7385448,-96.6159598,75149
3001 DAYBREAK TRL MESQUITE TX 75181,4,2.0,2017,2266,10232,377405,32.7293498,-96.5450442,75181
1740 HACKAMORE ST MESQUITE TX 75149,3,2.0,1988,1175,5920,241016,32.776104,-96.571228,75149
1427 WINDMILL LN MESQUITE TX 75149,3,2.5,1986,1736,4809,285844,32.7786114,-96.5761491,75149
1424 HACKAMORE ST MESQUITE TX 75149,2,2.0,1985,1136,5454,222227,32.7772089,-96.5761074,75149
1536 COPPER MEADOW DR MESQUITE TX 75149,3,2.5,1986,2139,5828,293311,32.7756722,-96.5744392,75149
435 WELLINGTON DR MESQUITE TX 75149,3,2.0,1986,1308,8355,289299,32.7463016,-96.5902822,75149
2105 SPRING MILLS RD MESQUITE TX 75181,4,2.5,1996,2869,7200,402174,32.7370842,-96.5969551,75181
2017 VALLEY FALLS AVE MESQUITE TX 75181,3,2.0,1991,1858,7200,307699,32.7367771,-96.5984197,75181
2733 BILOXI LN MESQUITE TX 75150,4,2.5,1974,2025,7349,364233,32.8376863,-96.6416606,75150
1500 PAULA LN MESQUITE TX 75149,3,2.0,1997,1807,8107,300542,32.7497734,-96.6069353,75149
1440 JESSICA LN MESQUITE TX 75149,3,2.0,1998,1452,5101,255598,32.7500848,-96.61019,75149
917 GLENN CIR MESQUITE TX 75149,3,1.5,1970,1018,7802,212024,32.7763361,-96.6043901,75149
404 W GRUBB DR MESQUITE TX 75149,2,1.0,1960,1103,7196,205811,32.7751884,-96.6028463,75149
820 WILLOWBROOK DR MESQUITE TX 75149,3,2.0,1963,1566,7501,249682,32.7767394,-96.6092303,75149
1828 RIDGEVIEW PLAZA  MESQUITE TX 75149,2,2.0,1974,1344,2344,196415,32.7906715,-96.6119916,75149
916 CREEKSIDE DR MESQUITE TX 75181,3,2.5,1987,2136,9091,356201,32.7357609,-96.5844908,75181
313 W GRUBB DR MESQUITE TX 75149,3,1.5,1963,1296,7401,250820,32.7755506,-96.6018032,75149
100 WOODBRIDGE WAY  MESQUITE TX 75149,3,1.0,1955,1312,9004,215866,32.7678201,-96.634314,75149
1307 SUMMIT ST MESQUITE TX 75149,3,1.0,1959,972,7501,232042,32.7781379,-96.6110581,75149
1412 HILLCREST ST MESQUITE TX 75149,3,1.0,1955,1625,7501,208448,32.7814701,-96.6119357,75149
3212 MAHAN CIR MESQUITE TX 75149,4,2.0,1985,1979,8438,319984,32.78507,-96.643622,75149
301 HUNTERS CREEK DR MESQUITE TX 75150,3,2.0,1990,1678,8803,304434,32.801183,-96.6001344,75150
2424 BROOK CREST DR MESQUITE TX 75150,4,2.5,1988,2545,9217,407984,32.7985848,-96.6019701,75150
503 W KEARNEY ST MESQUITE TX 75149,2,2.0,1958,980,6138,219977,32.7710884,-96.6031801,75149
2914 POTEET DR MESQUITE TX 75150,2,2.0,1982,1538,7192,279554,32.8044539,-96.6055166,75150
408 QUAIL HOLLOW DR MESQUITE TX 75150,3,2.0,1982,1644,7540,315894,32.8015766,-96.6022413,75150
1420 GOLDEN GROVE DR MESQUITE TX 75149,3,2.0,1983,2022,8011,299391,32.784939,-96.6463157,75149
2904 FALLS CHURCH LN MESQUITE TX 75149,3,2.0,1977,1873,9618,382694,32.7829348,-96.6408268,75149
1421 WOODLAWN PKWY MESQUITE TX 75149,3,2.0,1977,1788,9596,279580,32.783908,-96.6429966,75149
4504 OLEANDER TRL MESQUITE TX 75150,3,2.0,1959,1260,8638,294935,32.8239674,-96.6430801,75150
4521 ASTOR RD MESQUITE TX 75150,3,2.0,1959,1224,7131,233669,32.8247517,-96.6433339,75150
2330 SCHIRRA WAY  MESQUITE TX 75150,3,2.0,1970,1749,9518,296781,32.806214,-96.6365669,75150
727 SARA DR MESQUITE TX 75149,3,2.0,1963,1373,9121,217207,32.7765178,-96.6085649,75149
2204 SPRING MILLS RD MESQUITE TX 75181,3,2.0,1993,1889,7200,322255,32.7357591,-96.5961179,75181
2424 BOARDWALK DR MESQUITE TX 75181,4,2.5,1992,2584,7327,390534,32.7336707,-96.5531317,75181
2108 HUMMINGBIRD WAY MESQUITE TX 75181,3,2.0,2006,1678,5602,288341,32.7277586,-96.5275388,75181
2236 HUMMINGBIRD WAY MESQUITE TX 75181,3,2.5,2007,1850,5184,309956,32.725691,-96.5292891,75181
1008 GLENN CIR MESQUITE TX 75149,3,1.5,1970,1248,7200,247401,32.7775894,-96.6039311,75149
704 WILLOWBROOK DR MESQUITE TX 75149,2,1.0,1964,1096,7802,174506,32.7783775,-96.6072247,75149
812 WILLOWBROOK DR MESQUITE TX 75149,4,2.0,1963,2079,7802,277034,32.7770266,-96.6088838,75149
4418 LIVE OAK DR MESQUITE TX 75150,3,1.5,1961,1026,11021,222527,32.8254873,-96.6392393,75150
2404 BARETTA DR MESQUITE TX 75181,3,2.0,1990,1406,5040,261113,32.7563966,-96.5631976,75181
4640 GLENEAGLE  MESQUITE TX 75150,3,2.0,1980,1668,7318,275738,32.8312362,-96.6361549,75150
3713 HOGAN DR MESQUITE TX 75150,3,2.0,1956,1244,7501,256565,32.8330718,-96.6542253,75150
4111 OCEAN REEF  MESQUITE TX 75150,3,2.0,1982,1518,8398,273597,32.8260322,-96.6322679,75150
1516 VALLEY TRL MESQUITE TX 75149,4,2.0,1983,1628,9252,295540,32.7459847,-96.5925514,75149
2805 FANTAIL DR MESQUITE TX 75181,4,3.0,2006,2823,10328,376367,32.7198754,-96.5342695,75181
5000 KESTREL DR MESQUITE TX 75181,4,3.5,2006,3450,12724,372773,32.7173253,-96.5355823,75181
1918 CHESHIRE CREEK PL MESQUITE TX 75181,3,2.0,1993,1614,15577,304698,32.739935,-96.5852833,75181
1232 PARKWOOD TRL MESQUITE TX 75149,4,2.0,1998,2330,10289,346525,32.7515691,-96.572771,75149
1423 CRAWFORD DR MESQUITE TX 75149,4,2.0,1999,1763,10498,333401,32.7496967,-96.5741472,75149
1126 S BRYAN ST MESQUITE TX 75149,2,1.0,1958,969,7501,214671,32.7525355,-96.5995085,75149
1322 HANEY LN MESQUITE TX 75149,4,2.0,1954,660,8634,124517,32.75056,-96.6278016,75149
1827 ROBERT JONES DR MESQUITE TX 75150,3,2.0,1982,1707,7440,295406,32.8192642,-96.6246086,75150
1523 UVALDE ST MESQUITE TX 75150,3,2.0,1985,1498,7331,278299,32.8184887,-96.6210193,75150
2713 MARK DR MESQUITE TX 75150,3,2.0,1969,1503,9418,266204,32.794427,-96.6430573,75150
1853 MOUNT PLEASANT DR MESQUITE TX 75149,3,1.0,1958,966,7375,220482,32.7436219,-96.6179667,75149
1913 PYRAMID DR MESQUITE TX 75149,3,1.5,1960,1034,7741,203099,32.742679,-96.6215946,75149
4128 ARBOR CT MESQUITE TX 75150,3,2.0,1978,1938,7440,275508,32.8213052,-96.5989941,75150
3331 PRANCER ST LANCASTER TX 75146,3,2.0,1998,1631,25535,289213,32.5537925,-96.7520966,75146
1864 ROGERS AVE LANCASTER TX 75134,2,1.0,1960,914,8634,182900,32.6130675,-96.7773191,75134
1270 HOUSTON SCHOOL RD LANCASTER TX 75146,3,2.0,1964,1907,77842,421945,32.5964395,-96.8051881,75146
1231 W WINTERGREEN RD LANCASTER TX 75134,3,2.0,1987,1619,81457,321297,32.6194522,-96.7886642,75134
1313 FERRIS RD LANCASTER TX 75146,3,2.0,1964,1316,43560,282689,32.5755925,-96.7199975,75146
4145 DOYLE LN LANCASTER TX 75134,2,1.0,1958,768,8991,171519,32.6367088,-96.781461,75134
815 E 3RD ST LANCASTER TX 75146,4,2.0,1996,1516,13155,231906,32.5954317,-96.7472457,75146
2313 REDWOOD DR LANCASTER TX 75134,3,2.0,2018,1786,5998,311845,32.6166748,-96.8024676,75134
1408 MARVIN GARDENS  LANCASTER TX 75134,3,2.0,2006,1854,7501,299233,32.6309704,-96.7908755,75134
2334 CEDARWOOD DR LANCASTER TX 75134,3,2.0,2014,1729,6203,288902,32.6155484,-96.8025722,75134
2732 MURPHY DR LANCASTER TX 75134,4,2.0,2003,1764,5811,285625,32.6218371,-96.7996635,75134
4433 TRIPPIE ST LANCASTER TX 75134,3,1.0,1955,1008,23810,192601,32.6421253,-96.7869421,75134
1862 MASON WY LANCASTER TX 75134,3,2.0,2011,2160,9666,308480,32.614422,-96.800647,75134
1113 CONLIN DR LANCASTER TX 75134,3,2.0,1987,1725,16348,286885,32.6210599,-96.7807079,75134
121 E 7TH ST LANCASTER TX 75146,4,1.0,1908,2304,33698,291081,32.5995106,-96.7556096,75146
1433 HONEY BEE LN LANCASTER TX 75134,4,2.5,2004,3393,7501,364530,32.6244667,-96.7933025,75134
1424 HOUSTON SCHOOL RD LANCASTER TX 75146,3,2.0,1970,1623,27966,279418,32.6032672,-96.8053346,75146
2802 HENRY RD LANCASTER TX 75134,3,2.0,1979,1379,26624,183780,32.6188537,-96.7922564,75134
4169 DOYLE LN LANCASTER TX 75134,3,1.0,1958,1326,8917,237354,32.6375538,-96.7820886,75134
302 REA AVE LANCASTER TX 75146,3,1.0,1951,1110,15002,249420,32.6028037,-96.7605866,75146
910 W WINTERGREEN RD LANCASTER TX 75134,3,1.0,1945,768,14340,167454,32.621657,-96.7826743,75134
538 W HAMMOND  LANCASTER TX 75146,2,1.0,1943,888,11927,113035,32.6009182,-96.7637655,75146
1412 MARVIN GARDENS  LANCASTER TX 75134,3,2.0,2006,2246,7501,298818,32.6308735,-96.7910428,75134
945 SYCAMORE LN LANCASTER TX 75146,3,2.0,1982,1838,9910,282062,32.6044182,-96.776315,75146
542 REA AVE LANCASTER TX 75146,3,2.0,1966,1218,16980,224271,32.6025819,-96.7645844,75146
1350 ROAN DR LANCASTER TX 75134,3,2.0,1985,1567,7980,270710,32.6202596,-96.782507,75134
3535 CUMBERLAND ST LANCASTER TX 75134,2,1.0,1953,716,21044,124174,32.6345317,-96.8208435,75134
2214 BRUCE DR LANCASTER TX 75134,4,2.0,2007,2096,7501,320101,32.6201217,-96.8005006,75134
1053 ALICIA LN LANCASTER TX 75134,3,2.0,1974,1728,7013,265482,32.6093332,-96.7805405,75134
1547 ILLINOIS AVE LANCASTER TX 75134,3,2.0,2012,1876,7749,303138,32.6310458,-96.7959808,75134
2207 MARVIN DR LANCASTER TX 75134,3,2.0,2007,1932,7876,295088,32.6196717,-96.7994752,75134
2508 ABBY LN LANCASTER TX 75134,3,2.0,2009,2193,8651,326231,32.6192771,-96.7982406,75134
438 S DALLAS AVE LANCASTER TX 75146,3,2.0,1945,1832,12201,227982,32.5881227,-96.756446,75146
311 W MAIN ST LANCASTER TX 75146,5,2.0,1920,2243,10629,273683,32.5924482,-96.7598129,75146
223 7TH ST LANCASTER TX 75146,2,1.0,1944,864,7601,151521,32.5992449,-96.7589136,75146
115 7TH ST LANCASTER TX 75146,3,1.0,1955,1140,5001,173953,32.5991822,-96.7572198,75146
205 N ELLIS ST LANCASTER TX 75146,3,2.0,1994,1537,20600,304746,32.5929866,-96.7608376,75146
1210 SPRING CREEK DR LANCASTER TX 75146,4,2.5,2002,3129,8050,335574,32.5907551,-96.7761476,75146
615 W 6TH ST LANCASTER TX 75146,3,1.0,1958,1056,20482,209900,32.5985275,-96.7665262,75146
2204 FREDERICK ST LANCASTER TX 75134,5,2.5,2008,2947,12044,348658,32.6183695,-96.7995798,75134
4261 ELKINS AVE LANCASTER TX 75134,3,2.0,2006,2657,33136,427857,32.6332069,-96.7869003,75134
1512 LINDA LN LANCASTER TX 75134,4,2.0,1998,1960,522720,453481,32.6104403,-96.7832392,75134
802 N ELM ST LANCASTER TX 75146,3,1.0,1930,1036,19998,152325,32.5990795,-96.7611722,75146
1242 LONG BRANCH DR LANCASTER TX 75146,3,2.0,2004,1808,7336,281044,32.5944547,-96.7776537,75146
584 REA AVE LANCASTER TX 75146,3,2.0,1968,1208,16980,221700,32.6025721,-96.7660794,75146
126 W 4TH ST LANCASTER TX 75146,2,1.0,1918,1036,8773,166828,32.5951709,-96.7578262,75146
711 WILSON ST LANCASTER TX 75146,2,1.0,1940,1000,11299,208494,32.5982721,-96.7582026,75146
219 N ELLIS ST LANCASTER TX 75146,3,2.5,2002,1847,12101,317157,32.5935141,-96.7608376,75146
1104 WESTRIDGE AVE LANCASTER TX 75146,3,2.0,1955,1552,16052,221393,32.6022406,-96.7677811,75146
1629 ENCHANTED LN LANCASTER TX 75146,4,3.0,1963,2134,36015,285768,32.579398,-96.7902478,75146
1207 LINKWOOD LN LANCASTER TX 75146,3,2.0,1970,1430,20639,223736,32.5781955,-96.7945998,75146
4274 ELKINS AVE LANCASTER TX 75134,4,2.0,2022,2536,29708,433186,32.6341506,-96.7869212,75134
1519 REBECCA LN LANCASTER TX 75134,3,2.0,2003,1485,6599,264411,32.6107914,-96.7828417,75134
4192 EDWARDS ST LANCASTER TX 75134,3,1.0,1958,1141,9300,210016,32.6381012,-96.7833438,75134
1444 ALDRIDGE DR LANCASTER TX 75134,4,2.0,1989,1645,16122,290235,32.6080344,-96.7964411,75134
540 WILSON ST LANCASTER TX 75146,2,1.0,1945,1164,16501,201929,32.5964131,-96.7576171,75146
118 S ELLIS ST LANCASTER TX 75146,2,2.0,1930,836,11600,181629,32.5914725,-96.7603775,75146
1003 N HENRY ST LANCASTER TX 75146,3,1.0,1957,988,7802,175502,32.6013817,-96.7551495,75146
127 OAK ST LANCASTER TX 75146,2,1.0,1949,837,7501,152784,32.6022936,-96.7553587,75146
527 BRANCHWOOD DR LANCASTER TX 75146,3,2.0,2004,2057,10049,300496,32.5936102,-96.7810844,75146
648 RUTGERS DR LANCASTER TX 75134,3,2.0,1961,1998,7309,251663,32.6139863,-96.7676137,75134
858 STANFORD DR LANCASTER TX 75134,3,1.5,1971,1136,6935,223861,32.6149893,-96.7734702,75134
886 LEXINGTON DR LANCASTER TX 75134,4,2.0,1970,1154,84491390,3303453,32.6140752,-96.7749344,75134
2661 HARTFORD LN LANCASTER TX 75134,3,2.0,1983,1404,8398,246142,32.6183952,-96.772257,75134
1282 LONG BRANCH DR LANCASTER TX 75146,3,2.0,2005,2251,7261,317349,32.5944574,-96.779641,75146
511 W 6TH ST LANCASTER TX 75146,4,2.0,1956,1443,30675,274433,32.5982851,-96.7625539,75146
447 S DALLAS AVE LANCASTER TX 75146,5,2.5,1974,2676,31799,288773,32.587691,-96.7571152,75146
1256 CYPRESS LN LANCASTER TX 75146,3,2.0,1997,1484,8808,256173,32.5935844,-96.779118,75146
212 W 8TH ST LANCASTER TX 75146,3,2.0,1945,1152,8298,229094,32.5997649,-96.7585973,75146
331 FRANCIS ST LANCASTER TX 75146,3,2.0,2003,1568,11800,257026,32.5942378,-96.7604612,75146
1464 BROOK MEADOW CIR LANCASTER TX 75134,3,2.0,1983,1140,4465,292754,32.608119,-96.789266,75134
556 W 5TH ST LANCASTER TX 75146,3,1.0,1950,1067,18748,195348,32.5962797,-96.7642047,75146
883 BIRCHWOOD DR LANCASTER TX 75146,3,2.0,1971,1777,11138,286916,32.601757,-96.7743069,75146
130 S STEWART AVE LANCASTER TX 75146,4,3.0,1968,2222,10799,285918,32.5911226,-96.7615696,75146
536 GRIFFIN ST LANCASTER TX 75146,3,2.5,2007,1940,10890,306336,32.5947307,-96.7635563,75146
590 W HAMMOND  LANCASTER TX 75146,2,1.5,1950,1108,11927,194895,32.600889,-96.7659405,75146
2953 MONTICELLO LN LANCASTER TX 75134,4,2.0,2002,2084,6652,311670,32.6253353,-96.8024258,75134
2469 MEADOWGATE LN LANCASTER TX 75134,4,2.0,2002,1966,6721,291617,32.6221319,-96.8047695,75134
630 PIERSON ST LANCASTER TX 75146,2,1.0,1925,472,9592,102890,32.5963473,-96.7496397,75146
1003 N LANCASTER HUTCHINS RD LANCASTER TX 75146,4,2.0,2022,2464,67640,460011,32.6014932,-96.7481656,75146
2809 MCKENZIE LN LANCASTER TX 75134,3,2.0,2002,1512,5558,253757,32.6223267,-96.8052299,75134
126 BARRY LN LANCASTER TX 75146,3,2.0,1956,1462,10851,254242,32.5921827,-96.7680111,75146
441 S LANCASTER HUTCHINS RD LANCASTER TX 75146,3,2.5,1977,2036,167253,372604,32.588282,-96.7518457,75146
3132 CRIMSON CLOVER DR LANCASTER TX 75134,4,2.0,2004,2049,7501,302761,32.6262522,-96.7911684,75134
1511 GOLDEN GRASS DR LANCASTER TX 75134,3,2.0,2004,1934,7501,309083,32.6249837,-96.7943069,75134
3029 PAINT BRUSH PL LANCASTER TX 75134,3,2.0,2004,1934,7501,299392,32.6246704,-96.7895364,75134
1320 BUMBLE BEE DR LANCASTER TX 75134,5,2.5,2002,2945,7858,336075,32.621612,-96.7892017,75134
3019 CRIMSON CLOVER DR LANCASTER TX 75134,3,2.0,2003,1934,8499,305958,32.6238662,-96.790185,75134
1531 ILLINOIS AVE LANCASTER TX 75134,3,2.0,2013,2105,7749,323025,32.631392,-96.7952694,75134
2221 MONTCLAIR ST LANCASTER TX 75146,3,2.0,1985,1482,6599,277297,32.6025363,-96.8013795,75146
138 SOUTHWOOD DR LANCASTER TX 75146,3,1.0,1964,2362,24250,306426,32.5850108,-96.7929678,75146
392 CREEKWOOD DR LANCASTER TX 75146,5,3.0,1979,3260,35214,419496,32.5772398,-96.7984499,75146
1489 BROOK MEADOW CIR LANCASTER TX 75134,2,2.0,1982,1090,4761,153711,32.608807,-96.7887949,75134
1825 SERENA DR LANCASTER TX 75134,3,2.0,2007,1731,7501,290594,32.6139897,-96.7988893,75134
1826 SHANNA DR LANCASTER TX 75134,3,2.0,2008,1867,7802,298713,32.612648,-96.7989102,75134
1715 KATRINA LN LANCASTER TX 75134,3,2.0,2011,2230,8682,327232,32.6128333,-96.8011702,75134
150 BOCA RATON WAY  LANCASTER TX 75146,4,3.0,2006,2640,9052,352562,32.5939308,-96.8153804,75146
2531 GERRY WAY  LANCASTER TX 75134,3,2.0,1950,1606,20944,279044,32.6183897,-96.7837622,75134
1306 KENTUCKY AVE LANCASTER TX 75134,3,2.0,2006,1816,7501,313869,32.6331649,-96.7884903,75134
225 E 7TH ST LANCASTER TX 75146,3,1.0,1948,1304,9601,203846,32.5994381,-96.7536858,75146
834 QUAIL RUN LN LANCASTER TX 75146,4,2.5,1998,2083,12846,317161,32.5923406,-96.8021328,75146
2765 PIKE DR LANCASTER TX 75134,2,1.0,1961,996,8233,163104,32.6112632,-96.8147316,75134
1719 W MAIN ST LANCASTER TX 75146,3,2.0,2020,1074,43560,266747,32.5818343,-96.7947795,75146
729 DONLEE RD LANCASTER TX 75134,3,2.0,1973,1510,13913,241785,32.6109077,-96.7696844,75134
715 WILLOWOOD LN LANCASTER TX 75134,3,2.0,1962,1399,8686,225666,32.6119013,-96.768785,75134
620 WILLOWOOD LN LANCASTER TX 75134,3,2.0,1962,1879,8259,235353,32.6114639,-96.7671118,75134
1175 N HOUSTON SCHOOL RD LANCASTER TX 75146,4,2.5,1990,2350,126934,465960,32.5945179,-96.8061717,75146
2835 AMBER WAVES LN LANCASTER TX 75134,3,2.0,2007,1974,8459,295501,32.6224172,-96.7856869,75134
208 W 4TH ST LANCASTER TX 75146,4,2.0,1957,2164,12201,237126,32.5951067,-96.758327,75146
431 W 5TH ST LANCASTER TX 75146,2,1.0,1949,1152,18748,203551,32.5966537,-96.7617327,75146
569 W 5TH ST LANCASTER TX 75146,3,1.0,1950,971,19201,122143,32.5968275,-96.7646345,75146
185 S RIVERDELL MEWS  LANCASTER TX 75146,3,2.5,2017,2036,3798,327019,32.5875886,-96.7911668,75146
622 WILSON ST LANCASTER TX 75146,3,1.0,1920,1036,9601,179426,32.5976791,-96.7577844,75146
125 WALNUT ST LANCASTER TX 75146,2,1.0,1935,888,10799,107201,32.6004755,-96.7556514,75146
129 W 7TH ST LANCASTER TX 75146,3,2.0,1960,1301,6399,204643,32.5991738,-96.7577844,75146
746 RUTGERS DR LANCASTER TX 75134,4,2.0,1961,1998,8529,257582,32.6156397,-96.7687432,75134
2649 ARCADY LN LANCASTER TX 75134,3,2.0,1986,1470,95990275,3668394,32.6182285,-96.7704582,75134
2937 MARSH DR LANCASTER TX 75134,3,2.0,2016,1740,5502,294242,32.6252294,-96.798701,75134
3006 E PEPPERIDGE DR LANCASTER TX 75134,3,2.0,2012,1370,7200,285861,32.6248825,-96.7746207,75134
120 W 4TH ST LANCASTER TX 75146,3,2.0,1952,2208,9148,284210,32.5951151,-96.757638,75146
615 N DALLAS AVE LANCASTER TX 75146,3,1.0,1930,1230,32700,222156,32.5973492,-96.7569688,75146
120 W 8TH ST LANCASTER TX 75146,3,1.0,1962,1195,7601,193382,32.5997583,-96.7575301,75146
2657 ST ANDREWS DR LANCASTER TX 75146,3,2.0,2003,2110,7501,310960,32.6021639,-96.8098759,75146
2217 BRUCE DR LANCASTER TX 75134,4,2.5,2007,2768,7501,319491,32.6205082,-96.800668,75134
2035 GODIVA ST LANCASTER TX 75134,4,2.5,2008,2405,8420,356323,32.6170238,-96.8000821,75134
1504 HONEY BEE LN LANCASTER TX 75134,4,2.5,2003,2512,8024,307317,32.6239371,-96.7933444,75134
1216 N ELM ST LANCASTER TX 75146,2,1.0,1952,1126,7701,192538,32.6036194,-96.7629917,75146
679 WINDSOR RD COPPELL TX 75019,4,4.5,2019,3948,5750,976822,32.985848,-97.0039216,75019
322 EDGEWOOD DR COPPELL TX 75019,3,2.0,1982,1488,7614,365421,32.9628501,-96.9908246,75019
402 BROOKS LN COPPELL TX 75019,3,2.0,1983,2054,9039,433753,32.9582338,-97.0009199,75019
614 WATERVIEW DR COPPELL TX 75019,4,2.5,1998,2135,5001,536066,32.9877682,-96.978333,75019
501 HALIFAX LN COPPELL TX 75019,4,4.5,1990,3983,9858,690529,32.9669203,-97.0068813,75019
111 CREEKSIDE LN COPPELL TX 75019,3,2.0,1983,1810,7000,429717,32.9675023,-96.9668301,75019
1428 FALLS RD COPPELL TX 75019,4,3.0,1993,2389,10058,621950,32.9635093,-96.9488019,75019
183 HIGHLAND MEADOW CIR COPPELL TX 75019,4,2.0,1988,2070,3999,528857,32.9654551,-96.9805189,75019
329 SPYGLASS DR COPPELL TX 75019,4,2.0,1993,2522,14876,659800,32.9761106,-96.9651001,75019
768 HUNTINGDON ST COPPELL TX 75019,4,3.0,2016,2406,3533,588707,32.9888189,-97.0032499,75019
637 SPRINGLAKE WAY COPPELL TX 75019,4,3.5,2017,3495,5872,828508,32.9871221,-97.007742,75019
302 COPPERSTONE TRL COPPELL TX 75019,5,4.5,1997,3732,24450,958156,32.9784321,-96.997275,75019
406 CAMBRIA DR COPPELL TX 75019,3,2.0,1979,1711,12611,414474,32.9643725,-96.9851375,75019
405 WOODHILL  COPPELL TX 75019,3,2.0,1979,1673,7867,420789,32.9614836,-96.9833075,75019
337 WOODHURST PL COPPELL TX 75019,4,2.0,1979,1923,15468,363872,32.9628977,-96.9848857,75019
537 SHADOWCREST LN COPPELL TX 75019,3,2.0,1979,1785,7013,445301,32.9646847,-96.9796007,75019
402 BUTTONWOOD DR COPPELL TX 75019,4,2.0,1996,2559,9566,611102,32.9795765,-97.0093173,75019
707 WINDSOR RD COPPELL TX 75019,5,4.5,2019,4185,5750,928452,32.9866468,-97.0045093,75019
722 WINGATE RD COPPELL TX 75019,5,4.0,2020,3399,6251,833761,32.9872071,-97.0023263,75019
609 RAVEN LN COPPELL TX 75019,3,2.0,1984,2118,8999,521358,32.9673362,-96.9759888,75019
523 WOODHURST DR COPPELL TX 75019,3,2.0,1979,1887,7139,499153,32.9638671,-96.9800243,75019
753 EAGLE DR COPPELL TX 75019,3,2.5,1984,1711,9374,420041,32.9686476,-96.9709323,75019
534 GIFFORD DR COPPELL TX 75019,4,3.5,1998,3189,7261,757834,32.9824038,-97.005223,75019
605 PHEASANT LN COPPELL TX 75019,3,2.0,1983,1811,9126,502152,32.9655912,-96.9762615,75019
516 BLACKFIELD DR COPPELL TX 75019,4,3.5,1998,3487,8695,743824,32.9816078,-97.0041944,75019
510 LOXLEY DR COPPELL TX 75019,4,3.5,1996,3057,8250,738437,32.9823526,-97.0037956,75019
314 WOODHURST DR COPPELL TX 75019,3,2.0,1979,1944,7000,459924,32.9625509,-96.9859979,75019
316 WILLOW SPRINGS DR COPPELL TX 75019,3,2.0,1980,1748,7841,420045,32.9652565,-96.9861658,75019
332 WILLOW SPRINGS DR COPPELL TX 75019,3,2.0,1980,1480,7841,413937,32.9651768,-96.9852424,75019
462 WILLOW SPRINGS DR COPPELL TX 75019,3,2.0,1979,1420,7000,357685,32.9663483,-96.9821789,75019
618 SPRING HILL DR COPPELL TX 75019,4,2.0,1999,2679,7985,627110,32.9844341,-96.9869632,75019
416 SHADOWCREST LN COPPELL TX 75019,3,2.0,1979,1642,7719,356331,32.9636388,-96.9841291,75019
904 BRENTWOOD DR COPPELL TX 75019,4,2.5,1993,2829,5985,554305,32.9837436,-96.9624931,75019
954 MAPLELEAF LN COPPELL TX 75019,3,2.0,1983,1320,5175,344148,32.9680017,-96.9636736,75019
813 REDCEDAR WAY DR COPPELL TX 75019,3,2.0,1983,1882,7000,472286,32.9638167,-96.9684357,75019
409 WOODHILL  COPPELL TX 75019,2,2.0,1979,1785,8621,430694,32.9616548,-96.9832279,75019
105 PINYON LN COPPELL TX 75019,3,2.0,1983,1176,8120,335754,32.9688598,-96.9608583,75019
805 REDCEDAR WAY DR COPPELL TX 75019,3,2.0,1983,1424,7200,405042,32.9638515,-96.9688992,75019
140 MESQUITEWOOD ST COPPELL TX 75019,3,2.0,1986,1604,7000,420826,32.9669008,-96.9681001,75019
204 ASPENWAY DR COPPELL TX 75019,3,2.0,1983,1266,8050,352571,32.9674052,-96.9602333,75019
250 PINYON LN COPPELL TX 75019,3,2.0,1985,1311,7466,394823,32.9652885,-96.9612821,75019
413 SHADOWCREST LN COPPELL TX 75019,3,2.0,1979,1607,7710,366640,32.9631476,-96.9839414,75019
121 HILL DR COPPELL TX 75019,4,2.5,1986,2130,7013,480605,32.9676763,-96.9695057,75019
247 ASPENWAY DR COPPELL TX 75019,3,2.0,1985,1310,8507,384403,32.96499,-96.9599606,75019
981 TUPELO DR COPPELL TX 75019,3,2.0,1984,1916,7819,428385,32.9617413,-96.9612821,75019
105 MACARTHUR BLVD COPPELL TX 75019,2,2.0,1983,1176,5354,306342,32.9688227,-96.9601389,75019
206 CREEKSIDE LN COPPELL TX 75019,3,2.0,1982,1687,7222,370712,32.966149,-96.9663483,75019
329 MACARTHUR BLVD COPPELL TX 75019,3,2.0,1985,1474,8215,388036,32.9623457,-96.9600496,75019
412 WESTLAKE CT COPPELL TX 75019,3,3.0,1995,3753,15015,881325,32.9797556,-96.9683407,75019
112 CHERRYBARK DR COPPELL TX 75019,3,2.0,1987,1680,7000,470087,32.9680678,-96.967198,75019
816 SUGARBERRY DR COPPELL TX 75019,3,2.0,1984,1955,10441,500796,32.9690716,-96.9684357,75019
212 ASPENWAY DR COPPELL TX 75019,3,2.0,1984,1756,8050,394586,32.9670251,-96.9599816,75019
1009 HEMLOCK CT COPPELL TX 75019,3,2.0,1984,1347,8468,376302,32.9648931,-96.9628764,75019
718 WINDSOR RD COPPELL TX 75019,5,4.0,2020,3487,5750,887177,32.987166,-97.004241,75019
728 VILLAWOOD LN COPPELL TX 75019,3,2.5,1986,2857,9378,614579,32.9634943,-96.9706806,75019
104 MOCKINGBIRD LN COPPELL TX 75019,3,2.5,1984,1716,9126,424110,32.969008,-96.9699673,75019
119 WHISPERING HILLS CT COPPELL TX 75019,4,3.5,2015,2941,7253,880094,32.9705761,-97.0006585,75019
326 WOODHURST DR COPPELL TX 75019,3,2.0,1979,1785,8616,431074,32.9622725,-96.9854943,75019
347 KYRA CT COPPELL TX 75019,4,2.5,2020,2500,8181,596185,32.952311,-96.983636,75019
417 LEISURE LN COPPELL TX 75019,2,2.5,1988,1251,3999,413602,32.9722199,-97.0018173,75019
113 HILL DR COPPELL TX 75019,3,2.0,1986,1616,7000,438917,32.9680563,-96.9695181,75019
610 RAVEN LN COPPELL TX 75019,3,2.0,1984,1761,8999,477822,32.9677995,-96.9759258,75019
907 BITTERNUT DR COPPELL TX 75019,3,2.0,1983,1545,9561,427422,32.9668019,-96.965163,75019
910 ELMVALE CT COPPELL TX 75019,4,2.0,1983,2051,10019,434021,32.966461,-96.9649952,75019
755 WINDSOR RD COPPELL TX 75019,5,4.0,2019,3547,5750,917932,32.9885863,-97.0050551,75019
425 WILLOW SPRINGS DR COPPELL TX 75019,3,2.0,2000,2133,7000,509230,32.9654249,-96.9836433,75019
103 WHISPERING HILLS CT COPPELL TX 75019,4,3.0,2016,3341,6569,885062,32.9698456,-97.0006475,75019
712 DAVINCI CT COPPELL TX 75019,3,2.5,2014,2480,3676,579020,32.9848563,-97.0129743,75019
106 MAPLELEAF LN COPPELL TX 75019,3,2.0,1983,1928,8324,453725,32.968482,-96.9662371,75019
318 SPYGLASS DR COPPELL TX 75019,4,2.5,1993,3381,13917,833853,32.9759502,-96.9640512,75019
671 WINGATE RD COPPELL TX 75019,4,3.0,2018,3147,7396,809853,32.9858193,-97.002872,75019
958 REDCEDAR WAY DR COPPELL TX 75019,3,2.0,1983,1347,7353,401311,32.966132,-96.964219,75019
232 CHERRYBARK DR COPPELL TX 75019,3,2.0,1984,1424,7122,437469,32.9653631,-96.9685826,75019
900 TUPELO DR COPPELL TX 75019,3,2.0,1984,1545,8015,447126,32.9618699,-96.9659346,75019
962 LAGUNA DR COPPELL TX 75019,4,3.0,1993,3116,10319,704122,32.9722459,-96.9621632,75019
927 LAGUNA DR COPPELL TX 75019,3,2.5,1997,2157,9479,544011,32.9702904,-96.9617865,75019
1411 BARRINGTON DR COPPELL TX 75019,4,4.0,1996,3084,17446,718742,32.9565303,-96.9479001,75019
1331 WESTCHESTER DR COPPELL TX 75019,5,4.0,1994,3165,8999,622125,32.9579808,-96.9507616,75019
641 WATERVIEW DR COPPELL TX 75019,4,2.5,1998,2804,9257,612861,32.9884738,-96.9772048,75019
540 OAKCREST  COPPELL TX 75019,3,2.0,1979,2184,12001,561715,32.9569152,-96.9884952,75019
635 BANBURY RD COPPELL TX 75019,4,4.5,2016,3566,6342,786924,32.9887009,-97.0092534,75019
985 PARKER DR COPPELL TX 75019,4,2.5,1993,1958,14793,484681,32.9835445,-96.9603741,75019
697 NOTTINGHAM DR COPPELL TX 75019,4,2.5,1992,2305,5001,497276,32.9830705,-96.9629416,75019
645 BELLA VISTA DR COPPELL TX 75019,4,2.0,1998,2106,5249,565090,32.987338,-96.9802717,75019
652 FOREST HILL DR COPPELL TX 75019,4,2.5,1998,3008,5001,555822,32.9888955,-96.9777755,75019
710 CHESHIRE DR COPPELL TX 75019,4,2.5,1995,2748,4870,581098,32.9829113,-96.9643182,75019
923 SUGARBERRY DR COPPELL TX 75019,3,2.0,1983,1320,5175,376953,32.9685731,-96.9645576,75019
604 FOREST HILL DR COPPELL TX 75019,5,3.5,1998,2826,5001,602440,32.9879335,-96.9792609,75019
607 FOREST HILL DR COPPELL TX 75019,4,2.5,1998,2188,5001,508471,32.987725,-96.9788635,75019
695 WINDSOR RD COPPELL TX 75019,4,3.5,2019,3848,5750,953874,32.9863107,-97.0042574,75019
718 GRAYWOOD LN COPPELL TX 75019,4,2.5,1997,2680,7588,625798,32.9805755,-97.0097153,75019
341 SPRINGOAK LN COPPELL TX 75019,3,2.0,1984,1760,7998,472091,32.9618016,-96.9664847,75019
329 PHILLIPS DR COPPELL TX 75019,3,2.0,1985,1776,6242,442266,32.9779552,-96.9753408,75019
259 TEALWOOD DR COPPELL TX 75019,3,2.5,1992,2103,8999,533954,32.9651801,-96.9975519,75019
231 COVE DR COPPELL TX 75019,4,2.5,1991,2557,5319,514344,32.9743424,-96.963126,75019
924 BLUE JAY LN COPPELL TX 75019,5,4.5,1997,4172,9187,815329,32.9579672,-96.9633085,75019
217 LONGMEADOW DR COPPELL TX 75019,4,3.5,1996,3108,7741,635105,32.9631254,-96.9507582,75019
656 PHILLIPS DR COPPELL TX 75019,3,2.0,1987,1958,6242,438297,32.9835857,-96.9735549,75019
447 GRAHAM DR COPPELL TX 75019,4,3.0,1994,3312,9104,864543,32.9784055,-97.0035227,75019
403 HIGHLAND WAY  COPPELL TX 75019,3,2.0,1982,2269,12001,610295,32.9604814,-96.9811086,75019
312 MORNING MIST  COPPELL TX 75019,3,2.5,1986,2352,7475,558766,32.9791681,-96.9822866,75019
268 KAILEY WAY  COPPELL TX 75019,4,4.0,1995,3890,8999,754485,32.9776183,-96.9863127,75019
953 FALCON LN COPPELL TX 75019,4,3.0,1996,3078,12580,783953,32.9605716,-96.9626247,75019
120 MEADOWGLEN CIR COPPELL TX 75019,3,2.0,1984,1594,9004,475171,32.9707932,-96.9658343,75019
508 ASHFORD DR COPPELL TX 75019,3,2.5,1990,1755,4199,441156,32.9807469,-96.9675755,75019
808 PRESCOTT LN COPPELL TX 75019,5,5.5,2016,4266,5741,842957,32.9524684,-96.9598696,75019
949 SARATOGA WY COPPELL TX 75019,4,4.0,2015,3533,6033,735011,32.9509516,-96.9607293,75019
573 RAINTREE CIR COPPELL TX 75019,3,2.5,1989,1741,5201,438387,32.9827001,-96.9717533,75019
676 RAINTREE CIR COPPELL TX 75019,3,2.0,1989,1745,3498,395686,32.9836839,-96.9688608,75019
561 RAINTREE CIR COPPELL TX 75019,4,2.5,1990,2160,6490,447317,32.9820668,-96.971352,75019
805 ASHFORD DR COPPELL TX 75019,3,2.5,1991,1538,5049,408737,32.9796128,-96.9658973,75019
209 BAY CIR COPPELL TX 75019,4,2.5,1991,2808,15320,696432,32.9748902,-96.9610724,75019
952 REDWING DR COPPELL TX 75019,4,3.0,1996,3469,9187,857299,32.9594323,-96.9622952,75019
923 E BETHEL SCHOOL RD COPPELL TX 75019,4,3.5,1997,2897,9156,642487,32.958745,-96.9639673,75019
703 MADISON ST COPPELL TX 75019,4,3.5,2002,4286,14623,1181278,32.9861093,-96.9992618,75019
736 MADISON ST COPPELL TX 75019,4,3.5,2001,3581,9431,1073042,32.9874821,-96.9997655,75019
630 PARR ST COPPELL TX 75019,3,2.0,1985,1835,6242,450147,32.9767279,-96.9734497,75019
1021 BASILWOOD DR COPPELL TX 75019,5,3.5,1996,3149,7588,690902,32.9743181,-96.9560171,75019
576 LAKE FOREST DR COPPELL TX 75019,3,2.5,1986,1521,3999,477196,32.9832027,-96.9676967,75019
513 OAK GROVE LN COPPELL TX 75019,4,5.0,2021,4497,11204,549193,32.9659146,-97.007637,75019
324 LEISURE LN COPPELL TX 75019,3,2.0,1987,1403,3999,378983,32.9730196,-97.0012497,75019
1204 FINN RD HUTCHINS TX 75141,3,1.0,1940,1480,130680,284593,32.629263,-96.691268,75141
408 MICHAEL ST HUTCHINS TX 75141,3,1.0,1961,1552,335543,442128,32.650399,-96.689043,75141
1615 TROUT RD HUTCHINS TX 75141,2,1.0,1958,824,103586,259319,32.6409942,-96.6859774,75141
1303 TROUT RD HUTCHINS TX 75141,3,1.0,1969,1200,11674,205054,32.6460914,-96.6893522,75141
1614 DOWDY FERRY RD HUTCHINS TX 75141,2,1.0,1957,1150,130680,309224,32.6466311,-96.6898092,75141
1710 DOWDY FERRY RD HUTCHINS TX 75141,3,1.0,1967,1571,38594,233151,32.6469328,-96.6875168,75141
1623 DOWDY FERRY RD HUTCHINS TX 75141,3,1.0,1950,1406,11761,204672,32.6473116,-96.6894804,75141
1208 FINN RD HUTCHINS TX 75141,2,2.0,1989,1698,87120,280310,32.629018,-96.690507,75141
1707 DOWDY FERRY RD HUTCHINS TX 75141,3,1.0,1947,1433,14244,198505,32.6476488,-96.6881017,75141
1715 E WINTERGREEN RD HUTCHINS TX 75141,2,1.0,1957,744,12284,134783,32.6385365,-96.6875586,75141
1731 WINTERGREEN RD HUTCHINS TX 75141,3,1.0,1955,1092,10803,166844,32.6389855,-96.6865559,75141
1324 DOWDY FERRY RD HUTCHINS TX 75141,3,1.5,1960,1600,39596,263395,32.6477084,-96.6968758,75141
308 MICHAEL ST HUTCHINS TX 75141,2,1.0,1935,600,219107,286574,32.6494316,-96.6901071,75141
1617 E WINTERGREEN RD HUTCHINS TX 75141,2,1.0,1950,676,9017,127107,32.6377852,-96.6890332,75141
1703 DOWDY FERRY RD HUTCHINS TX 75141,3,1.0,1972,1456,17685,206467,32.6475431,-96.6884359,75141
499 MICHAEL ST HUTCHINS TX 75141,2,1.0,1935,800,242629,288572,32.6500775,-96.6900011,75141
1611 WINTERGREEN RD HUTCHINS TX 75141,3,1.0,1950,1576,9017,200071,32.6377443,-96.6892297,75141
1715 DOWDY FERRY RD HUTCHINS TX 75141,4,3.5,2006,3680,161520,598960,32.648095,-96.688193,75141
1605 TROUT RD HUTCHINS TX 75141,2,1.0,1957,906,43560,151603,32.6416247,-96.6864463,75141
1617 TROUT RD HUTCHINS TX 75141,2,1.0,1972,768,12632,126126,32.6412931,-96.6861381,75141
412 MICHAEL ST HUTCHINS TX 75141,2,1.0,1948,720,43560,132867,32.650174,-96.6899424,75141
8003 LAKE VALLEY CT ROWLETT TX 75089,4,2.5,2012,2564,15599,504526,32.9314682,-96.5407716,75089
2107 HOLLY RIDGE CT CEDAR HILL TX 75104,4,3.0,2003,2682,44431,499145,32.5829602,-96.9863127,75104
1061 COVE HOLLOW DR CEDAR HILL TX 75104,5,3.0,2002,3026,13726,416565,32.6004157,-96.9170981,75104
1284 LONGLEAF DR CEDAR HILL TX 75104,5,3.0,2002,3648,9156,378458,32.6131926,-96.9439992,75104
416 VINCENT ST CEDAR HILL TX 75104,2,1.0,1984,1011,4269,202885,32.5838753,-96.9385983,75104
1015 ALDEN DR CEDAR HILL TX 75104,3,2.0,1998,1602,8751,271250,32.5701803,-96.9428667,75104
1030 CEDAR TRAIL DR CEDAR HILL TX 75104,3,2.0,1985,1416,9753,288722,32.5704473,-96.9738371,75104
7109 TIMBERLINE DR ROWLETT TX 75089,3,2.0,1975,1723,7126,333125,32.913329,-96.5336011,75089
6914 LAKESHORE DR ROWLETT TX 75089,3,2.5,1976,1750,8268,324873,32.9121774,-96.535374,75089
5909 LAKESHORE DR ROWLETT TX 75089,4,3.0,1977,2562,10999,521759,32.9139144,-96.5382082,75089
7306 HARVEST HILL DR ROWLETT TX 75089,3,2.0,1978,1968,6865,326358,32.9143992,-96.5320665,75089
7117 HARVEST HILL DR ROWLETT TX 75089,3,2.0,1980,1754,6957,363853,32.9148268,-96.5335104,75089
932 PECAN TRAILS  CEDAR HILL TX 75104,3,2.0,2002,1768,6778,302012,32.5717895,-96.9552418,75104
6701 CREEK BEND  ROWLETT TX 75089,3,2.5,2002,2706,10751,424719,32.9296166,-96.5380415,75089
8002 LAKE VALLEY CT ROWLETT TX 75089,6,5.0,2013,4411,15599,695383,32.9310769,-96.5402923,75089
8101 ROCK VALLEY DR ROWLETT TX 75089,5,4.5,2013,4090,28214,662689,32.9316693,-96.5386042,75089
8305 ROCK VALLEY DR ROWLETT TX 75089,4,2.5,2013,2700,15263,493378,32.9327779,-96.5375205,75089
929 WILDERNESS PASS  CEDAR HILL TX 75104,5,3.5,2004,4115,8904,371888,32.5717407,-96.9540035,75104
7218 HARVEST HILL DR ROWLETT TX 75089,4,2.0,1978,1587,6865,286576,32.9144379,-96.5324904,75089
5802 FAWN VALLEY LN ROWLETT TX 75089,4,2.5,1975,2068,7950,360015,32.9125524,-96.5357491,75089
6009 BOBBIE LN ROWLETT TX 75089,4,2.0,1974,1871,10372,321272,32.9144188,-96.5349226,75089
6001 BOBBIE LN ROWLETT TX 75089,4,2.0,1975,1681,7344,318711,32.9140108,-96.5348238,75089
5905 BOBBIE LN ROWLETT TX 75089,3,2.0,1974,1605,6551,308490,32.9134902,-96.5345821,75089
441 KIMMEL DR CEDAR HILL TX 75104,4,2.5,1996,2736,9121,399603,32.6164178,-96.959562,75104
313 MEADOWGLEN DR CEDAR HILL TX 75104,3,2.0,1987,1709,8786,272262,32.5711631,-96.9485502,75104
7314 ALISSA DR ROWLETT TX 75089,3,2.0,1996,1821,28057,374635,32.9155715,-96.5316646,75089
6802 ALISSA DR ROWLETT TX 75089,3,2.0,1996,1220,6499,302853,32.9154504,-96.5364993,75089
7013 ALISSA DR ROWLETT TX 75089,4,2.5,1998,2253,7501,364225,32.9156318,-96.5347071,75089
6809 ALISSA DR ROWLETT TX 75089,3,2.0,1995,1388,6499,319751,32.915744,-96.5359158,75089
6301 SHORECREST DR ROWLETT TX 75089,3,2.0,1995,1500,10999,309347,32.9166142,-96.5360408,75089
6305 WATERVIEW DR ROWLETT TX 75089,4,2.5,1994,2375,8799,408544,32.9165975,-96.535103,75089
2804 FAIRWAY DR CEDAR HILL TX 75104,4,2.5,1997,4407,43560,686904,32.5675921,-97.0053489,75104
704 KRISTI LN CEDAR HILL TX 75104,4,2.5,1997,1892,8499,328902,32.5769369,-96.9367434,75104
226 TREES DR CEDAR HILL TX 75104,4,3.0,2004,3446,8494,388050,32.6151668,-96.9496199,75104
709 LONG CT CEDAR HILL TX 75104,4,4.0,1983,1868,6952,325839,32.5978225,-96.9544088,75104
6013 FAWN VALLEY LN ROWLETT TX 75089,4,3.0,1974,2267,10999,397462,32.9146856,-96.5368744,75089
7306 ALISSA DR ROWLETT TX 75089,4,3.5,1993,3007,6665,456466,32.9152451,-96.5320397,75089
7014 ALISSA DR ROWLETT TX 75089,3,3.0,1984,1886,5005,365999,32.9151977,-96.5346237,75089
7106 LAKESHORE DR ROWLETT TX 75089,3,2.5,2013,1818,7488,392286,32.9121122,-96.533686,75089
7101 TIMBERLINE DR ROWLETT TX 75089,3,2.0,1979,1582,7906,317677,32.9133026,-96.5340355,75089
7117 RIDGEVIEW DR ROWLETT TX 75089,3,2.5,1978,1506,6551,300346,32.9140564,-96.5335101,75089
7109 RIDGEVIEW DR ROWLETT TX 75089,3,2.5,1973,1454,6551,295905,32.9140516,-96.5339087,75089
7313 HARVEST HILL DR ROWLETT TX 75089,3,2.5,1979,1860,8024,322120,32.914833,-96.5316166,75089
7001 HARVEST HILL DR ROWLETT TX 75089,3,2.0,1973,1615,7370,303680,32.9148517,-96.535374,75089
1521 WILLOW LN CEDAR HILL TX 75104,4,2.5,2005,3370,10001,404214,32.5590583,-96.9077282,75104
7117 MONTEGO DR ROWLETT TX 75089,4,2.0,1994,1899,7802,339877,32.9163525,-96.5334984,75089
1716 KNOB HILL CT CEDAR HILL TX 75104,3,3.0,1976,2395,177792801,5246557,32.6031524,-96.9855782,75104
7217 ALISSA DR ROWLETT TX 75089,3,2.0,1983,1795,6499,335651,32.9155994,-96.5325141,75089
7113 ALISSA DR ROWLETT TX 75089,3,2.0,1984,2034,6591,361987,32.9155924,-96.5337895,75089
7109 ALISSA DR ROWLETT TX 75089,3,2.0,1984,1611,6617,326698,32.9155842,-96.5340307,75089
7005 ALISSA DR ROWLETT TX 75089,3,2.0,1997,1556,7501,316117,32.91561,-96.5351239,75089
4206 ROSEBUD DR ROWLETT TX 75089,4,2.5,1993,2221,14418,392186,32.9164149,-96.5614275,75089
6411 BLUEBONNET DR ROWLETT TX 75089,3,2.0,2001,1923,16348,382094,32.9209653,-96.5698116,75089
6310 HAYDEN CT ROWLETT TX 75089,4,2.0,1986,2368,11260,422522,32.9166116,-96.5582807,75089
6314 HAYDEN CT ROWLETT TX 75089,4,2.5,1993,3172,10258,441529,32.9168165,-96.5581348,75089
4409 SHADY LN ROWLETT TX 75089,5,3.0,1991,3992,35153,632915,32.9152866,-96.5588853,75089
913 BELCLAIRE CIR CEDAR HILL TX 75104,5,5.5,2022,6847,14784,1214062,32.6047985,-96.9571078,75104
1244 HIGHVIEW DR CEDAR HILL TX 75104,4,2.5,2002,2287,8442,337235,32.611726,-96.9450897,75104
1504 KINGSWOOD DR CEDAR HILL TX 75104,4,2.5,1965,2757,19750,375524,32.5691074,-96.9725688,75104
1119 MADLYNNE DR CEDAR HILL TX 75104,3,2.0,1977,1700,11317,292844,32.5671854,-96.9757576,75104
123 CHAMBLIN DR CEDAR HILL TX 75104,3,2.5,2005,2348,8063,364953,32.5941941,-96.922616,75104
224 ARMSTRONG DR CEDAR HILL TX 75104,3,2.0,1993,1750,7079,302034,32.5964694,-96.9233842,75104
826 SHADY BROOK LN CEDAR HILL TX 75104,3,2.0,1987,1800,7619,324492,32.6123519,-96.9289852,75104
928 CRESTWOOD DR CEDAR HILL TX 75104,3,2.0,1995,1490,4800,271324,32.5866583,-96.9214795,75104
424 ORCHARD HILL DR CEDAR HILL TX 75104,3,2.0,1999,2047,7200,339976,32.6100278,-96.9483824,75104
6901 SHORECREST DR ROWLETT TX 75089,2,2.0,1985,1363,8102,304662,32.9173726,-96.5357907,75089
6909 SHORECREST DR ROWLETT TX 75089,3,2.0,1985,1462,7327,321418,32.9173943,-96.535374,75089
7009 SHORECREST DR ROWLETT TX 75089,3,2.5,1985,1690,7327,338103,32.9173663,-96.53474,75089
1117 ANGELA DR CEDAR HILL TX 75104,4,2.5,1975,1880,15220,372785,32.5672372,-96.9739876,75104
1128 MADLYNNE DR CEDAR HILL TX 75104,4,3.0,1991,2518,10873,421124,32.566038,-96.9763221,75104
7001 LYNN DR ROWLETT TX 75088,3,2.0,1992,1974,13334,372668,32.9071104,-96.5354365,75088
7301 SHAWN DR ROWLETT TX 75088,3,2.0,1984,1821,10393,340360,32.9077746,-96.5323731,75088
1000 WATERVIEW DR CEDAR HILL TX 75104,5,3.5,1997,3022,8468,322079,32.5859756,-96.9195089,75104
5805 MARK LN ROWLETT TX 75089,4,2.5,1974,2013,8250,343871,32.9128,-96.5353442,75089
6002 MARK LN ROWLETT TX 75089,3,2.5,1973,1869,11308,348394,32.9140491,-96.5353253,75089
7214 TIMBERLINE DR ROWLETT TX 75089,3,2.0,1974,1664,6865,286804,32.9129079,-96.5324904,75089
1507 SHARON DR CEDAR HILL TX 75104,3,2.0,1975,1680,10110,313256,32.5686631,-96.9726528,75104
7205 BEVERLY DR ROWLETT TX 75089,4,2.5,2005,2730,7366,431519,32.9247245,-96.5251217,75089
7317 COLFAX DR ROWLETT TX 75089,4,2.5,2005,2050,7789,388488,32.9235772,-96.5227465,75089
7214 COLFAX DR ROWLETT TX 75089,3,2.5,2005,2004,8533,389281,32.9237511,-96.524455,75089
6701 WESTOVER DR ROWLETT TX 75089,3,2.0,2004,1823,7370,370424,32.9206774,-96.5228715,75089
6614 AMESBURY LN ROWLETT TX 75089,3,2.0,2003,2334,7423,411404,32.9202928,-96.5231007,75089
6806 AMESBURY LN ROWLETT TX 75089,3,2.0,2004,1999,7919,399703,32.9213255,-96.5236903,75089
7402 PROVIDENCE DR ROWLETT TX 75089,3,2.0,2004,1874,9500,421794,32.9197975,-96.5313312,75089
115 CHARLOTTE DR CEDAR HILL TX 75104,5,2.0,2004,2459,8067,374380,32.594279,-96.923576,75104
7201 COLFAX DR ROWLETT TX 75089,4,2.0,2003,2876,8163,458882,32.9245271,-96.524705,75089
7318 COLFAX DR ROWLETT TX 75089,4,2.0,2003,2646,8538,402222,32.9231858,-96.5230949,75089
8109 HARTFORD DR ROWLETT TX 75089,3,2.0,2003,2228,7396,404111,32.9233193,-96.52433,75089
7118 MELTON DR ROWLETT TX 75089,3,2.5,2004,2633,9740,393940,32.9231968,-96.5249967,75089
6901 WESTOVER DR ROWLETT TX 75089,3,2.5,2003,2286,8072,439991,32.9218878,-96.5240383,75089
1112 GERMANY DR CEDAR HILL TX 75104,3,2.0,1996,1663,6983,311796,32.5923814,-96.9226346,75104
408 MATTERHORN ST CEDAR HILL TX 75104,3,2.0,1983,1437,8542,282892,32.5838707,-96.9401405,75104
1144 WISHING WELL CT CEDAR HILL TX 75104,4,3.5,2000,3106,36721,492739,32.5668218,-97.0097494,75104
410 DOLLINS ST CEDAR HILL TX 75104,2,2.0,1985,1054,3794,164452,32.5805112,-96.9397337,75104
446 POGUE ST CEDAR HILL TX 75104,2,1.0,1983,1004,3833,196763,32.5797158,-96.9380488,75104
7205 COLFAX DR ROWLETT TX 75089,2,2.5,2003,2636,7693,427795,32.9243605,-96.5245383,75089
7209 COLFAX DR ROWLETT TX 75089,3,2.0,2003,2713,7789,402153,32.9242376,-96.5243717,75089
7313 COLFAX DR ROWLETT TX 75089,4,2.5,2005,1932,7784,376687,32.9236278,-96.5229161,75089
8101 HARTFORD DR ROWLETT TX 75089,3,2.0,2003,2227,8555,417498,32.9235189,-96.524705,75089
459 ORCHARD HILL DR CEDAR HILL TX 75104,5,3.5,1999,3035,7200,381532,32.6103073,-96.9500813,75104
6710 WESTOVER DR ROWLETT TX 75089,4,2.5,2002,2954,8398,454152,32.9211332,-96.5225381,75089
7514 PROVIDENCE DR ROWLETT TX 75089,3,2.0,2005,2536,8002,450947,32.9197925,-96.5297475,75089
7906 MARQUETT DR ROWLETT TX 75089,4,2.5,2002,3017,7200,434837,32.9205538,-96.5260802,75089
8005 WILMINGTON DR ROWLETT TX 75089,3,2.0,2003,2143,8028,401907,32.9201928,-96.5250176,75089
7913 WILMINGTON DR ROWLETT TX 75089,4,2.0,2003,2290,7200,383204,32.920151,-96.5255163,75089
8014 AMESBURY LN ROWLETT TX 75089,4,2.5,2004,2459,8067,370762,32.9212459,-96.52458,75089
6805 AMESBURY LN ROWLETT TX 75089,4,2.0,2003,2636,8067,429867,32.9211691,-96.5243717,75089
7805 MARQUETT DR ROWLETT TX 75089,4,2.0,2004,2149,8028,401554,32.9209487,-96.5269137,75089
7714 WESTOVER DR ROWLETT TX 75089,4,2.0,2004,2325,8002,409558,32.9220042,-96.5272679,75089
7814 WESTOVER DR ROWLETT TX 75089,4,2.5,2004,2876,8002,472019,32.9220323,-96.5263278,75089
1121 VALERIE DR CEDAR HILL TX 75104,3,2.0,1994,2026,10184,320280,32.5668259,-96.9728835,75104
1025 HEATH CIR CEDAR HILL TX 75104,3,2.5,1991,2198,12014,297980,32.569967,-96.9689602,75104
484 VINCENT ST CEDAR HILL TX 75104,3,2.5,1984,1428,8542,272894,32.5839565,-96.9346046,75104
1722 RIGHT FIELD CT CEDAR HILL TX 75104,4,4.0,2007,4028,45376,826948,32.5542339,-97.0095683,75104
441 POGUE ST CEDAR HILL TX 75104,2,2.0,1983,1060,4256,196272,32.5792767,-96.9383467,75104
7310 COLFAX DR ROWLETT TX 75089,4,2.0,2004,2268,7418,390484,32.9233273,-96.5235054,75089
443 ORCHARD HILL DR CEDAR HILL TX 75104,3,2.0,1999,2067,7200,280337,32.6103954,-96.9492843,75104
517 WEAVER ST CEDAR HILL TX 75104,3,2.0,1985,1754,8032,268498,32.5820941,-96.9325077,75104
7209 BEVERLY DR ROWLETT TX 75089,4,3.5,2004,2505,7261,455951,32.9248647,-96.5249551,75089
7314 COLFAX DR ROWLETT TX 75089,4,2.5,2004,2876,7675,446284,32.9232424,-96.5232968,75089
8302 HARTFORD DR ROWLETT TX 75089,5,4.0,2004,3379,0,503197,32.9223259,-96.5232049,75089
7106 MELTON DR ROWLETT TX 75089,4,2.5,2004,2279,7693,423167,32.922619,-96.5251203,75089
6906 WESTOVER DR ROWLETT TX 75089,4,2.0,2002,2311,7841,405252,32.9222422,-96.5236907,75089
1025 PARADISE COVE  CARROLLTON TX 75006,3,3.0,2010,2218,3215,411301,32.9789079,-96.9084409,75006
2524 KINGS GATE DR CARROLLTON TX 75006,4,3.0,1996,2564,8756,585962,32.9770269,-96.8663242,75006
2442 VIA BONITA  CARROLLTON TX 75006,4,2.5,1973,2115,10202,405879,32.9687844,-96.8728599,75006
1705 WILLOW RD CARROLLTON TX 75006,2,1.0,1949,1064,12741,281301,32.9616907,-96.9088544,75006
1719 BRAKE DR CARROLLTON TX 75006,2,1.0,1956,728,8259,203882,32.9472072,-96.8956144,75006
1829 HIGHLAND DR CARROLLTON TX 75006,3,1.0,1958,1625,9618,266831,32.9529807,-96.8910042,75006
1833 CHEVY CHASE DR CARROLLTON TX 75006,3,2.0,1963,1240,7802,297137,32.9408117,-96.8948181,75006
2313 SCOTT MILL CIR CARROLLTON TX 75006,2,2.0,1982,1062,3115,251535,32.9781222,-96.8844364,75006
1053 RODIN LN CARROLLTON TX 75006,4,3.5,2006,2476,3071,497936,32.9763399,-96.9082285,75006
2108 TAXCO DR CARROLLTON TX 75006,3,2.5,1977,1938,8542,357658,32.9809285,-96.8809677,75006
2714 SOUTH SURREY DR CARROLLTON TX 75006,4,2.5,1973,2432,10559,436246,32.9640468,-96.8602499,75006
1109 NORTHSIDE DR CARROLLTON TX 75006,2,2.0,1961,1536,7701,239100,32.9595749,-96.9095648,75006
2637 KINGS GATE DR CARROLLTON TX 75006,4,3.0,1996,2924,8869,560901,32.9773796,-96.862384,75006
2234 VALLEY MILL  CARROLLTON TX 75006,3,2.0,1979,1977,10498,405803,32.9815867,-96.8719631,75006
