property_id,full_address,beds,baths,year_built,sq_ft_interior,sq_ft_lot,price,price_label,lat,long,img_url,zip_code
31364980,1009 SEMINARY RIDGE  GARLAND TX 75043,3,2.0,1984,1953,8638,345473,Redfin Estimate,32.8808466,-96.6161834,['https://maps.googleapis.com/maps/api/streetview?channel=mb-pdp-publicrecord&location=1009+Seminary+Rdg%2C+Garland%2C+TX+75043&size=665x441&source=outdoor&client=gme-redfin&signature=SgZ82Bkga39NKtabBsA3TyZ6PEY='],75043
31364996,2013 MERRIMAC TRL GARLAND TX 75043,3,1.5,1980,1841,8398,278333,Redfin Estimate,32.883196,-96.6146133,['https://ssl.cdn-redfin.com/photo/90/mbphoto/190/genMid.10027190_0.jpg'],75043
31365088,2813 HARPERS FERRY LN GARLAND TX 75043,3,2.0,1984,1974,8756,330036,Redfin Estimate,32.8814303,-96.6135909,['https://maps.googleapis.com/maps/api/streetview?channel=mb-pdp-publicrecord&location=2813+Harpers+Ferry+Ln%2C+Garland%2C+TX+75043&size=665x441&source=outdoor&client=gme-redfin&signature=JM0LPigNNI1HKRVQO_RAJAM_WiQ='],75043
31364927,1902 MERRIMAC TRL GARLAND TX 75043,4,2.0,1984,2289,16152,424025,Redfin Estimate,32.8809539,-96.6122347,['https://ssl.cdn-redfin.com/photo/90/mbphoto/335/genMid.20096335_0.jpg'],75043
31364924,1918 MERRIMAC TRL GARLAND TX 75043,4,2.0,1988,2558,19741,384529,Redfin Estimate,32.8816719,-96.612339,['https://ssl.cdn-redfin.com/photo/90/mbphoto/439/genMid.13475439_0.jpg'],75043
31366142,2825 COUNTRY CLUB RD GARLAND TX 75043,4,3.0,1979,2876,14000,419321,Redfin Estimate,32.8830599,-96.6080619,['https://maps.googleapis.com/maps/api/streetview?channel=mb-pdp-publicrecord&location=2825+S+Country+Club+Rd%2C+Garland%2C+TX+75043&size=665x441&source=outdoor&client=gme-redfin&signature=tEgnpO8PKAq-jaudLFi-yg_CARA='],75043
32224088,4509 WATERBIRD LN GARLAND TX 75043,3,2.0,2001,1514,7283,311979,Redfin Estimate,32.8583982,-96.6158235,['https://maps.googleapis.com/maps/api/streetview?channel=mb-pdp-publicrecord&location=4509+Waterbird+Ln%2C+Garland%2C+TX+75043&size=665x441&source=outdoor&client=gme-redfin&signature=Pcnn2OLm4uwTXur3uM1ajjEGzFE='],75043
32224102,206 DRAKE LN GARLAND TX 75043,3,2.0,2003,1974,6935,328158,Redfin Estimate,32.8580697,-96.6145716,['https://maps.googleapis.com/maps/api/streetview?channel=mb-pdp-publicrecord&location=206+Drake+Ln%2C+Garland%2C+TX+75043&size=665x441&source=outdoor&client=gme-redfin&signature=ffYxHjNbS1CBGiqVApTM_EpBCvM='],75043
32224029,209 DRAKE LN GARLAND TX 75043,3,2.0,2001,1681,7087,335204,Redfin Estimate,32.8585016,-96.6146968,['https://ssl.cdn-redfin.com/photo/90/mbphoto/306/genMid.10047306_0.jpg'],75043
31405127,5216 SHOREGATE DR GARLAND TX 75043,2,3.0,2003,1331,3001,238543,Redfin Estimate,32.8531124,-96.5493311,['https://maps.googleapis.com/maps/api/streetview?channel=mb-pdp-publicrecord&location=5216+Shoregate+Dr%2C+Garland%2C+TX+75043&size=665x441&source=outdoor&client=gme-redfin&signature=C8jdW12VMuUEy_lNb9HKhXgaETs='],75043
31403631,2318 HIGH STAR DR GARLAND TX 75041,3,2.0,1985,1168,7832,266858,Redfin Estimate,32.8898691,-96.6161157,['https://ssl.cdn-redfin.com/photo/90/mbphoto/077/genMid.12120077_1.jpg'],75041
31403691,2414 HIGHMONT DR GARLAND TX 75041,3,2.0,1984,2107,7004,246184,Redfin Estimate,32.888983,-96.6171172,['https://maps.googleapis.com/maps/api/streetview?channel=mb-pdp-publicrecord&location=32.888983%2C-96.6171172&size=665x441&source=outdoor&client=gme-redfin&signature=RjRthFnn7N0qhs7YvVNMKVe3Cv4='],75041
31403711,2317 HIGH STAR DR GARLAND TX 75041,3,1.0,1985,1158,6878,197327,Redfin Estimate,32.8897088,-96.6166582,['https://ssl.cdn-redfin.com/photo/90/mbphoto/756/genMid.13615756_0.jpg'],75041
31395233,4725 CLIFFWOOD DR GARLAND TX 75043,3,2.0,1977,1589,8050,290123,Redfin Estimate,32.8552606,-96.6137787,['https://ssl.cdn-redfin.com/photo/90/mbphoto/296/genMid.11077296_3.jpg'],75043
31366136,2801 S COUNTRY CLUB RD GARLAND TX 75043,4,3.0,1981,3439,19798,580176,Redfin Estimate,32.8843004,-96.6094806,['https://ssl.cdn-redfin.com/photo/90/mbphoto/715/genMid.14554715_1.jpg'],75043
31366148,3006 APPLE VALLEY DR GARLAND TX 75043,4,2.5,1977,2586,10411,368627,Redfin Estimate,32.8808956,-96.6091885,['https://ssl.cdn-redfin.com/photo/90/mbphoto/367/genMid.11972367_2.jpg'],75043
31367988,3005 APPLE VALLEY DR GARLAND TX 75043,4,2.5,1980,2656,9492,409737,Redfin Estimate,32.8806038,-96.6096861,['https://ssl.cdn-redfin.com/photo/90/mbphoto/322/genMid.14396322_1.jpg'],75043
31367807,3021 CLUB HILL DR GARLAND TX 75043,4,3.0,1982,2872,10141,490381,Redfin Estimate,32.8808267,-96.6084166,['https://ssl.cdn-redfin.com/photo/90/mbphoto/576/genMid.20062576_0.jpg'],75043
31375891,609 E MILLER RD GARLAND TX 75041,2,1.0,1955,750,7501,186882,Redfin Estimate,32.8940119,-96.6241794,['https://ssl.cdn-redfin.com/photo/90/mbphoto/641/genMid.11550641_3.jpg'],75041
31375896,621 E MILLER RD GARLAND TX 75041,2,1.0,1955,749,7501,194243,Redfin Estimate,32.8940336,-96.6235861,['https://maps.googleapis.com/maps/api/streetview?channel=mb-pdp-publicrecord&location=621+E+Miller+Rd%2C+Garland%2C+TX+75041&size=665x441&source=outdoor&client=gme-redfin&signature=rAhlzH9uJGZn69q9WCw-PmqWSVs='],75041
31375897,709 E MILLER RD GARLAND TX 75041,2,1.0,1954,750,7501,182519,Redfin Estimate,32.8939768,-96.6230018,['https://maps.googleapis.com/maps/api/streetview?channel=mb-pdp-publicrecord&location=709+E+Miller+Rd%2C+Garland%2C+TX+75041&size=665x441&source=outdoor&client=gme-redfin&signature=DdPt15ft8UB_plDBBy9DB49T0nI='],75041
31375993,505 CASCADE DR GARLAND TX 75041,2,1.0,1954,1057,7501,203428,Redfin Estimate,32.8931658,-96.6255572,['https://maps.googleapis.com/maps/api/streetview?channel=mb-pdp-publicrecord&location=505+Cascade+Dr%2C+Garland%2C+TX+75041&size=665x441&source=outdoor&client=gme-redfin&signature=hJCyasXJr3nXVXnkwHAdjilvbn8='],75041
31375985,613 CASCADE DR GARLAND TX 75041,4,2.0,1954,1712,7501,295304,Redfin Estimate,32.8931016,-96.6240129,['https://maps.googleapis.com/maps/api/streetview?channel=mb-pdp-publicrecord&location=613+Cascade+Dr%2C+Garland%2C+TX+75041&size=665x441&source=outdoor&client=gme-redfin&signature=3HyximVM1tNNJzkHaRrm4ejdDR0='],75041
31375941,609 WALLACE DR GARLAND TX 75041,2,1.0,1954,915,7562,202692,Redfin Estimate,32.8926387,-96.624166,['https://maps.googleapis.com/maps/api/streetview?channel=mb-pdp-publicrecord&location=609+Wallace+Dr%2C+Garland%2C+TX+75041&size=665x441&source=outdoor&client=gme-redfin&signature=ZyQ9MTamKDRhoFk3F2tB3-AQRwM='],75041
31403708,2417 HIGH STAR DR GARLAND TX 75041,3,2.0,1985,1205,7183,273557,Redfin Estimate,32.8888363,-96.6165747,['https://maps.googleapis.com/maps/api/streetview?channel=mb-pdp-publicrecord&location=2417+High+Star+Dr%2C+Garland%2C+TX+75041&size=665x441&source=outdoor&client=gme-redfin&signature=3S08LCUmW3fYlUsJC69atXMUneQ='],75041
31403720,2413 HIGH HOLLOW DR GARLAND TX 75041,3,2.0,1986,1292,6983,264765,Redfin Estimate,32.888969,-96.6156595,['https://maps.googleapis.com/maps/api/streetview?channel=mb-pdp-publicrecord&location=2413+High+Hollow+Dr%2C+Garland%2C+TX+75041&size=665x441&source=outdoor&client=gme-redfin&signature=5fs2LrRSZBF5b7H7SoSLUf0W34c='],75041
31395279,4714 TEALWOOD PL GARLAND TX 75043,3,2.5,1974,2096,4064,304492,Redfin Estimate,32.857599,-96.6118591,['https://ssl.cdn-redfin.com/photo/90/mbphoto/743/genMid.14157743_0.jpg'],75043
31402928,529 GLENGARRY DR GARLAND TX 75043,3,2.0,1974,1391,7135,228950,Redfin Estimate,32.8620911,-96.6081871,['https://ssl.cdn-redfin.com/photo/90/mbphoto/373/genMid.10761373_0.jpg'],75043
31402905,505 GLENGARRY DR GARLAND TX 75043,3,2.0,1973,1377,7135,280060,Redfin Estimate,32.8614308,-96.6090634,['https://ssl.cdn-redfin.com/photo/90/mbphoto/206/genMid.13333206_0.jpg'],75043
31402904,437 GLENGARRY DR GARLAND TX 75043,4,2.0,1973,1680,7135,277064,Redfin Estimate,32.8611018,-96.6094806,['https://ssl.cdn-redfin.com/photo/90/mbphoto/618/genMid.10968618_2.jpg'],75043
31395250,4706 DUCK CREEK DR GARLAND TX 75043,3,2.0,1982,1496,7004,281394,Redfin Estimate,32.8556025,-96.6147802,['https://ssl.cdn-redfin.com/photo/90/mbphoto/459/genMid.11498459_5.jpg'],75043
31395254,4610 DUCK CREEK DR GARLAND TX 75043,3,2.0,1983,1374,7475,288192,Redfin Estimate,32.8561878,-96.6153228,['https://ssl.cdn-redfin.com/photo/90/mbphoto/453/genMid.14565453_0.jpg'],75043
31395379,4810 CLIFFWOOD DR GARLAND TX 75043,3,2.0,1983,1776,7701,328228,Redfin Estimate,32.8546581,-96.6119009,['https://maps.googleapis.com/maps/api/streetview?channel=mb-pdp-publicrecord&location=4810+Cliffwood+Dr%2C+Garland%2C+TX+75043&size=665x441&source=outdoor&client=gme-redfin&signature=PdRjzJEvUibKTomB0fnQsQTJOEM='],75043
31395192,4626 OAKWOOD DR GARLAND TX 75043,3,2.0,1973,1551,6464,311249,Redfin Estimate,32.858913,-96.6102317,['https://ssl.cdn-redfin.com/photo/90/mbphoto/631/genMid.20260631_1.jpg'],75043
31395152,4731 TEALWOOD CIR GARLAND TX 75043,3,2.0,1974,1382,6464,274795,Redfin Estimate,32.8575225,-96.6108159,['https://ssl.cdn-redfin.com/photo/90/mbphoto/783/genMid.13879783_1.jpg'],75043
31402927,525 GLENGARRY DR GARLAND TX 75043,3,2.0,1974,2081,7135,264439,Redfin Estimate,32.8619968,-96.6083123,['https://maps.googleapis.com/maps/api/streetview?channel=mb-ldp-publicrecord&location=525+Glengarry+Dr%2C+Garland%2C+TX+75043&size=665x441&source=outdoor&client=gme-redfin&signature=NTSrPivpkqOpqR8_NF5JJ9wcMzw='],75043
31402909,433 GLENGARRY DR GARLAND TX 75043,3,2.0,1974,1519,7135,289469,Redfin Estimate,32.8609636,-96.6096058,['https://maps.googleapis.com/maps/api/streetview?channel=mb-pdp-publicrecord&location=433+Glengarry+Dr%2C+Garland%2C+TX+75043&size=665x441&source=outdoor&client=gme-redfin&signature=6cQpRe-u2H19B7AJtyfgoOEeTKs='],75043
31402760,405 SOLITUDE DR GARLAND TX 75043,3,2.0,1974,1377,7680,251129,Redfin Estimate,32.8598321,-96.6094389,['https://ssl.cdn-redfin.com/photo/90/mbphoto/649/genMid.10479649_0.jpg'],75043
31383176,2329 ROYAL DR GARLAND TX 75041,3,2.0,1962,1345,7357,280950,Redfin Estimate,32.8846081,-96.6632862,['https://maps.googleapis.com/maps/api/streetview?channel=mb-pdp-publicrecord&location=2329+Royal+Dr%2C+Garland%2C+TX+75041&size=665x441&source=outdoor&client=gme-redfin&signature=6JLoROTU6mDEmbbXss-btjeBH0E='],75041
31383174,2616 NOTTINGHAM DR GARLAND TX 75041,3,2.0,1962,1822,7584,300386,Redfin Estimate,32.8849403,-96.6635405,['https://ssl.cdn-redfin.com/photo/90/mbphoto/443/genMid.14475443_1.jpg'],75041
31383193,2609 NOTTINGHAM DR GARLAND TX 75041,3,2.0,1962,1225,8364,278629,Redfin Estimate,32.8856672,-96.6639887,['https://ssl.cdn-redfin.com/photo/90/mbphoto/306/genMid.14689306_0.jpg'],75041
31383134,2617 NOTTINGHAM DR GARLAND TX 75041,4,2.0,1963,2166,7828,304888,Redfin Estimate,32.8849553,-96.6640009,['https://ssl.cdn-redfin.com/photo/90/mbphoto/949/genMid.10223949_0.jpg'],75041
31383141,2620 SCOTSWOOD DR GARLAND TX 75041,3,2.0,1962,1305,7597,294073,Redfin Estimate,32.8849493,-96.6646898,['https://ssl.cdn-redfin.com/photo/90/mbphoto/142/genMid.14627142_0.jpg'],75041
31383517,2709 WIMBLEDON CT GARLAND TX 75041,8,6.0,1984,4160,10393,654781,Redfin Estimate,32.8817659,-96.6605755,['https://ssl.cdn-redfin.com/photo/90/mbphoto/018/genMid.13870018_0.jpg'],75041
31403861,1210 O SHANNON LN GARLAND TX 75044,4,3.5,1988,2766,12118,509970,Redfin Estimate,32.9727114,-96.6184527,['https://maps.googleapis.com/maps/api/streetview?channel=mb-pdp-publicrecord&location=1210+O+Shannon+Ln%2C+Garland%2C+TX+75044&size=665x441&source=outdoor&client=gme-redfin&signature=eAxmkTyriVIrU17mjzsWnYB88To='],75044
31403907,6205 SCOTTSBORO LN GARLAND TX 75044,4,2.5,1987,2359,12998,469592,Redfin Estimate,32.9719109,-96.6203307,['https://maps.googleapis.com/maps/api/streetview?channel=mb-pdp-publicrecord&location=6205+Scottsboro+Ln%2C+Garland%2C+TX+75044&size=665x441&source=outdoor&client=gme-redfin&signature=zEsH0E3wXmYY9xkZphU2dwMIrFA='],75044
31403896,1437 O SHANNON LN GARLAND TX 75044,4,4.0,1987,3502,11439,563619,Redfin Estimate,32.9764797,-96.6167834,['https://maps.googleapis.com/maps/api/streetview?channel=mb-pdp-publicrecord&location=1437+O+Shannon+Ln%2C+Garland%2C+TX+75044&size=665x441&source=outdoor&client=gme-redfin&signature=lldaeo3Maq2g2RcsrE9ri0zXiXo='],75044
31403888,6310 DUBLIN DR GARLAND TX 75044,4,2.5,1986,3312,11857,517082,Redfin Estimate,32.9750558,-96.6172007,['https://maps.googleapis.com/maps/api/streetview?channel=mb-pdp-publicrecord&location=6310+Dublin+Dr%2C+Garland%2C+TX+75044&size=665x441&source=outdoor&client=gme-redfin&signature=j0Bs4s0ut8Vk-9M1J7-qFAtBDT8='],75044
31403967,6502 LYNCH LN GARLAND TX 75044,4,3.0,1993,2844,13504,526464,Redfin Estimate,32.9733996,-96.6220001,['https://ssl.cdn-redfin.com/photo/90/mbphoto/550/genMid.13905550_3.jpg'],75044
31403730,6505 LIMERICK LN GARLAND TX 75044,3,3.0,1989,2669,10450,498793,Redfin Estimate,32.9758247,-96.6203469,['https://maps.googleapis.com/maps/api/streetview?channel=mb-pdp-publicrecord&location=6505+Limerick+Ln%2C+Garland%2C+TX+75044&size=665x441&source=outdoor&client=gme-redfin&signature=QJsqnGwrluDvP9M_CjwWKiMGNbc='],75044
31403734,6413 LIMERICK LN GARLAND TX 75044,4,3.0,1989,2587,11051,529789,Redfin Estimate,32.9756209,-96.6193499,['https://ssl.cdn-redfin.com/photo/90/mbphoto/238/genMid.12144238_1.jpg'],75044
31403737,6726 FLARITY LN GARLAND TX 75044,4,3.5,1993,3602,11252,536061,Redfin Estimate,32.9783237,-96.6196004,['https://maps.googleapis.com/maps/api/streetview?channel=mb-pdp-publicrecord&location=6726+Flarity+Ln%2C+Garland%2C+TX+75044&size=665x441&source=outdoor&client=gme-redfin&signature=d2yiD5j3cdz-10I9LiMM7dNsCc4='],75044
31402912,405 GLENGARRY DR GARLAND TX 75043,3,2.0,1973,1630,5184,311153,Redfin Estimate,32.8602484,-96.6106907,['https://ssl.cdn-redfin.com/photo/90/mbphoto/470/genMid.13655470_1.jpg'],75043
31402752,4509 TARRY DR GARLAND TX 75043,3,2.0,1973,1608,7022,242328,Redfin Estimate,32.8596059,-96.6103986,['https://ssl.cdn-redfin.com/photo/90/mbphoto/215/genMid.10568215_0.jpg'],75043
31402708,428 SOLITUDE DR GARLAND TX 75043,3,2.0,1974,1548,5981,302867,Redfin Estimate,32.8607249,-96.6083123,['https://ssl.cdn-redfin.com/photo/90/mbphoto/707/genMid.13000707_0.jpg'],75043
31402817,4510 TRANQUILITY DR GARLAND TX 75043,3,2.0,1974,1492,8072,292840,Redfin Estimate,32.8596901,-96.6071439,['https://maps.googleapis.com/maps/api/streetview?channel=mb-pdp-publicrecord&location=4510+Tranquility+Dr%2C+Garland%2C+TX+75043&size=665x441&source=outdoor&client=gme-redfin&signature=IZGJjdouwN1cRbNVlvRo-0Cy0lA='],75043
31396880,406 WILLOWCREST DR GARLAND TX 75040,3,2.0,1977,2149,8520,355858,Redfin Estimate,32.9452786,-96.6346235,['https://maps.googleapis.com/maps/api/streetview?channel=mb-pdp-publicrecord&location=406+Willowcrest+Dr%2C+Garland%2C+TX+75040&size=665x441&source=outdoor&client=gme-redfin&signature=dnAWgv7c9eEqWz50be2M49Jykwo='],75040
31396865,317 PEBBLECREEK DR GARLAND TX 75040,3,2.0,1977,1991,8638,364222,Redfin Estimate,32.9449493,-96.6339858,['https://maps.googleapis.com/maps/api/streetview?channel=mb-pdp-publicrecord&location=317+Pebblecreek+Dr%2C+Garland%2C+TX+75040&size=665x441&source=outdoor&client=gme-redfin&signature=EFtZ5eTeSwI5pIuPfRmKIQgT2VE='],75040
31396845,302 PEBBLECREEK DR GARLAND TX 75040,3,2.0,1978,2057,9718,388872,Redfin Estimate,32.9445752,-96.6330401,['https://maps.googleapis.com/maps/api/streetview?channel=mb-pdp-publicrecord&location=302+Pebblecreek+Dr%2C+Garland%2C+TX+75040&size=665x441&source=outdoor&client=gme-redfin&signature=R6oIxV1EbxknB1ZThZIp-V2bouo='],75040
31396983,317 FAIRCREST DR GARLAND TX 75040,3,2.0,1977,2073,8882,364351,Redfin Estimate,32.9466506,-96.6339794,['https://maps.googleapis.com/maps/api/streetview?channel=mb-pdp-publicrecord&location=317+Faircrest+Dr%2C+Garland%2C+TX+75040&size=665x441&source=outdoor&client=gme-redfin&signature=CMYUMuun7huQNoLNfHyKHHSWEDM='],75040
31396973,433 GLEN CANYON DR GARLAND TX 75040,4,3.0,1983,2406,13438,418669,Redfin Estimate,32.9475081,-96.6361116,['https://maps.googleapis.com/maps/api/streetview?channel=mb-pdp-publicrecord&location=433+Glen+Canyon+Dr%2C+Garland%2C+TX+75040&size=665x441&source=outdoor&client=gme-redfin&signature=YPvKoc77TF7QpwN3yGdG8PixoeE='],75040
31395218,4618 CLIFFWOOD DR GARLAND TX 75043,3,2.0,1977,1560,7244,271560,Redfin Estimate,32.8564118,-96.6144047,['https://ssl.cdn-redfin.com/photo/90/mbphoto/914/genMid.10352914_0.jpg'],75043
31395225,4613 CLIFFWOOD DR GARLAND TX 75043,3,2.0,1973,1390,6403,265255,Redfin Estimate,32.8562976,-96.6149054,['https://ssl.cdn-redfin.com/photo/90/mbphoto/100/genMid.13714100_0.jpg'],75043
31395231,4717 CLIFFWOOD DR GARLAND TX 75043,3,2.0,1977,1613,6708,297321,Redfin Estimate,32.8555062,-96.6141126,['https://ssl.cdn-redfin.com/photo/90/mbphoto/090/genMid.20418090_0.jpg'],75043
31395240,4730 DUCK CREEK DR GARLAND TX 75043,3,2.0,1982,1541,9178,259820,Redfin Estimate,32.8548176,-96.6138622,['https://ssl.cdn-redfin.com/photo/90/mbphoto/402/genMid.10949402_2.jpg'],75043
31395255,4813 CLIFFWOOD DR GARLAND TX 75043,3,2.0,1979,1690,7148,294185,Redfin Estimate,32.8543229,-96.6121015,['https://maps.googleapis.com/maps/api/streetview?channel=mb-pdp-publicrecord&location=4813+Cliffwood+Dr%2C+Garland%2C+TX+75043&size=665x441&source=outdoor&client=gme-redfin&signature=_rpfqfrMBPOB4_eYES2RNQBKn2M='],75043
31402903,441 GLENGARRY DR GARLAND TX 75043,3,2.0,1973,1377,7135,238895,Redfin Estimate,32.8611983,-96.6093137,['https://ssl.cdn-redfin.com/photo/90/mbphoto/047/genMid.11355047_2.jpg'],75043
31402709,430 SOLITUDE DR GARLAND TX 75043,4,2.0,1973,1845,7632,306362,Redfin Estimate,32.8608476,-96.6084792,['https://ssl.cdn-redfin.com/photo/90/mbphoto/404/genMid.13664404_2.jpg'],75043
31402734,429 PEACEFUL DR GARLAND TX 75043,3,2.0,1974,1675,8420,277235,Redfin Estimate,32.8605935,-96.6074777,['https://ssl.cdn-redfin.com/photo/90/mbphoto/402/genMid.12091402_2.jpg'],75043
31402728,421 PEACEFUL DR GARLAND TX 75043,3,2.0,1974,1396,7200,236128,Redfin Estimate,32.8602733,-96.6077281,['https://ssl.cdn-redfin.com/photo/90/mbphoto/821/genMid.13305821_0.jpg'],75043
31402810,4505 MINT DR GARLAND TX 75043,3,2.0,1973,2011,7094,301575,Redfin Estimate,32.8601353,-96.6070188,['https://ssl.cdn-redfin.com/photo/90/mbphoto/783/genMid.13914783_1.jpg'],75043
31402826,4526 MINT DR GARLAND TX 75043,3,2.0,1974,1934,9008,270202,Redfin Estimate,32.8598417,-96.6059339,['https://ssl.cdn-redfin.com/photo/90/mbphoto/012/genMid.10186012_0.jpg'],75043
31402824,4425 MAYFLOWER DR GARLAND TX 75043,4,2.0,1974,1934,7606,288671,Redfin Estimate,32.8602452,-96.605767,['https://maps.googleapis.com/maps/api/streetview?channel=mb-pdp-publicrecord&location=4425+Mayflower+Dr%2C+Garland%2C+TX+75043&size=665x441&source=outdoor&client=gme-redfin&signature=l4bD6hHj215SBf-UDqMmsAG2Lw8='],75043
31405521,4705 CRESTHILL LN GARLAND TX 75043,3,2.0,1991,1744,7771,330693,Redfin Estimate,32.8480324,-96.5598438,['https://maps.googleapis.com/maps/api/streetview?channel=mb-pdp-publicrecord&location=4705+Cresthill+Ln%2C+Garland%2C+TX+75043&size=665x441&source=outdoor&client=gme-redfin&signature=ApH9N4zHpnoUbWKz9PfJd_evxoU='],75043
31405469,4814 CRESTPOINT LN GARLAND TX 75043,3,2.0,2016,1822,7383,356575,Redfin Estimate,32.8478,-96.5588855,['https://maps.googleapis.com/maps/api/streetview?channel=mb-pdp-publicrecord&location=4814+Crestpoint+Ln%2C+Garland%2C+TX+75043&size=665x441&source=outdoor&client=gme-redfin&signature=tWsWrZ0wDtZCJO-lxxCcNXOBDgE='],75043
31403928,1310 O SHANNON LN GARLAND TX 75044,3,2.5,1986,2302,15002,453802,Redfin Estimate,32.9736056,-96.6172842,['https://ssl.cdn-redfin.com/photo/90/mbphoto/011/genMid.14115011_0.jpg'],75044
31383532,2722 WIMBLEDON CT GARLAND TX 75041,8,6.0,1985,4160,8712,553260,Redfin Estimate,32.8811092,-96.6607456,['https://maps.googleapis.com/maps/api/streetview?channel=mb-ldp-publicrecord&location=2722+Wimbledon+Ct%2C+Garland%2C+TX+75041&size=665x441&source=outdoor&client=gme-redfin&signature=9k5vsAfPI13dqPrkPUJsGa9fid0='],75041
31395326,4610 REDWOOD DR GARLAND TX 75043,3,2.0,1977,1589,8891,309185,Redfin Estimate,32.8570303,-96.6143212,['https://maps.googleapis.com/maps/api/streetview?channel=mb-pdp-publicrecord&location=4610+Redwood+Dr%2C+Garland%2C+TX+75043&size=665x441&source=outdoor&client=gme-redfin&signature=96jcjNmlimXa46BNlaCY3n1QzYk='],75043
31395327,4742 REDWOOD DR GARLAND TX 75043,3,2.0,1977,1650,6930,250845,Redfin Estimate,32.8555022,-96.6125268,['https://ssl.cdn-redfin.com/photo/90/mbphoto/957/genMid.10457957_0.jpg'],75043
31395383,4802 DUCK CREEK DR GARLAND TX 75043,3,2.0,1984,1516,7126,290194,Redfin Estimate,32.8542981,-96.6129024,['https://maps.googleapis.com/maps/api/streetview?channel=mb-pdp-publicrecord&location=4802+Duck+Creek+Dr%2C+Garland%2C+TX+75043&size=665x441&source=outdoor&client=gme-redfin&signature=v11DbVNddgkonc2s1e-aC33vfFI='],75043
32224111,310 HAVENWOOD LN GARLAND TX 75043,3,2.0,2001,1650,8172,346355,Redfin Estimate,32.8595325,-96.6142795,['https://ssl.cdn-redfin.com/photo/90/mbphoto/754/genMid.11592754_4.jpg'],75043
32224016,306 HAVENWOOD LN GARLAND TX 75043,3,2.0,2001,1779,7144,326269,Redfin Estimate,32.8596163,-96.6145612,['https://maps.googleapis.com/maps/api/streetview?channel=mb-pdp-publicrecord&location=306+Havenwood+Ln%2C+Garland%2C+TX+75043&size=665x441&source=outdoor&client=gme-redfin&signature=Gg9C1WaYY8mTtomGnUlfgtalkOU='],75043
32224015,4406 WATERBIRD LN GARLAND TX 75043,3,2.0,2002,1742,11069,347001,Redfin Estimate,32.8592362,-96.6149054,['https://ssl.cdn-redfin.com/photo/90/mbphoto/872/genMid.13185872_0.jpg'],75043
31395153,4735 TEALWOOD CIR GARLAND TX 75043,3,2.0,1974,1308,6464,247109,Redfin Estimate,32.8576398,-96.6106699,['https://ssl.cdn-redfin.com/photo/90/mbphoto/548/genMid.11995548_2.jpg'],75043
31395165,4801 TEALWOOD CIR GARLAND TX 75043,3,2.0,1973,1382,6098,272755,Redfin Estimate,32.8581914,-96.6106073,['https://ssl.cdn-redfin.com/photo/90/mbphoto/193/genMid.20433193_1.jpg'],75043
31395272,4814 TEALWOOD CIR GARLAND TX 75043,4,2.0,1974,1808,6464,281537,Redfin Estimate,32.8584872,-96.6116505,['https://ssl.cdn-redfin.com/photo/90/mbphoto/657/genMid.11789657_2.jpg'],75043
31395302,228 ELMWOOD DR GARLAND TX 75043,3,2.0,1974,1232,16749,275232,Redfin Estimate,32.8579234,-96.6123599,['https://maps.googleapis.com/maps/api/streetview?channel=mb-pdp-publicrecord&location=228+Elmwood+Dr%2C+Garland%2C+TX+75043&size=665x441&source=outdoor&client=gme-redfin&signature=nX0islogUUOkGEUzJnoCRAKAKt4='],75043
31395310,310 ELMWOOD CT GARLAND TX 75043,3,2.0,1974,1527,7418,240657,Redfin Estimate,32.8585024,-96.612193,['https://ssl.cdn-redfin.com/photo/90/mbphoto/713/genMid.10713713_0.jpg'],75043
31393757,5010 COLLINGWOOD DR GARLAND TX 75043,3,2.0,1973,1279,6120,243922,Redfin Estimate,32.8534788,-96.6079518,['https://maps.googleapis.com/maps/api/streetview?channel=mb-pdp-publicrecord&location=5010+Collingwood+Dr%2C+Garland%2C+TX+75043&size=665x441&source=outdoor&client=gme-redfin&signature=UjEXR6cwNDo9rnVUS9zE4gm1DG0='],75043
31393760,5006 COLLINGWOOD DR GARLAND TX 75043,3,2.0,1973,1950,6120,291908,Redfin Estimate,32.853602,-96.6078116,['https://ssl.cdn-redfin.com/photo/90/mbphoto/507/genMid.13613507_0.jpg'],75043
31393810,4830 COLLINGWOOD DR GARLAND TX 75043,3,2.0,1973,1363,6181,263951,Redfin Estimate,32.8552926,-96.6090216,['https://ssl.cdn-redfin.com/photo/90/mbphoto/321/genMid.9693321_0.jpg'],75043
31393635,4925 COLLINGWOOD DR GARLAND TX 75043,3,2.0,1973,1382,6120,268567,Redfin Estimate,32.8540186,-96.6082288,['https://ssl.cdn-redfin.com/photo/90/mbphoto/359/genMid.14176359_0.jpg'],75043
31366221,1506 MERRIMAC TRL GARLAND TX 75043,4,2.5,1973,2378,12001,423840,Redfin Estimate,32.875447,-96.6093972,['https://ssl.cdn-redfin.com/photo/90/mbphoto/910/genMid.14750910_0.jpg'],75043
31366241,1422 MERRIMAC TRL GARLAND TX 75043,4,2.5,1978,2436,1481040,831463,Redfin Estimate,32.8743747,-96.6097727,['https://maps.googleapis.com/maps/api/streetview?channel=mb-pdp-publicrecord&location=1422+Merrimac+Trl%2C+Garland%2C+TX+75043&size=665x441&source=outdoor&client=gme-redfin&signature=cBZY705MPouXL1V6pRzg1rG6srA='],75043
31363616,633 FREEMAN DR GARLAND TX 75040,2,1.0,1949,800,8250,188605,Redfin Estimate,32.8990723,-96.6392516,['https://maps.googleapis.com/maps/api/streetview?channel=mb-pdp-publicrecord&location=633+Freeman+Dr%2C+Garland%2C+TX+75040&size=665x441&source=outdoor&client=gme-redfin&signature=kRRb3rEtgei0osKsao4KMUxJR2Y='],75040
31363453,624 FREEMAN DR GARLAND TX 75040,4,2.0,1949,1392,8751,262806,Redfin Estimate,32.8987061,-96.6388218,['https://maps.googleapis.com/maps/api/streetview?channel=mb-pdp-publicrecord&location=624+Freeman+Dr%2C+Garland%2C+TX+75040&size=665x441&source=outdoor&client=gme-redfin&signature=zWo492TKdX0E_9lu0nLTZ-2b5MM='],75040
31363510,640 FREEMAN DR GARLAND TX 75040,2,1.0,1949,784,9113,194384,Redfin Estimate,32.8987472,-96.6396985,['https://maps.googleapis.com/maps/api/streetview?channel=mb-pdp-publicrecord&location=640+Freeman+Dr%2C+Garland%2C+TX+75040&size=665x441&source=outdoor&client=gme-redfin&signature=KFrPBsYd_9gB8nVduuhQfs8j_6c='],75040
31363506,656 FREEMAN DR GARLAND TX 75040,3,2.0,1949,1350,8050,199870,Redfin Estimate,32.8991917,-96.6405096,['https://ssl.cdn-redfin.com/photo/90/mbphoto/805/genMid.10028805_0.jpg'],75040
31364909,1217 EWING DR GARLAND TX 75040,2,1.0,1949,983,8764,210058,Redfin Estimate,32.9017207,-96.6414936,['https://maps.googleapis.com/maps/api/streetview?channel=mb-pdp-publicrecord&location=1217+Ewing+Dr%2C+Garland%2C+TX+75040&size=665x441&source=outdoor&client=gme-redfin&signature=nsBwzWADuHCIAlGpstlAuh6JIYY='],75040
31364862,704 CHANDLER DR GARLAND TX 75040,3,1.0,1949,1071,7079,183857,Redfin Estimate,32.9014432,-96.6401159,['https://ssl.cdn-redfin.com/photo/90/mbphoto/479/genMid.11141479_3.jpg'],75040
31364859,1308 EWING DR GARLAND TX 75040,2,1.0,1949,992,8398,210924,Redfin Estimate,32.9008223,-96.6410761,['https://maps.googleapis.com/maps/api/streetview?channel=mb-pdp-publicrecord&location=1308+Ewing+Dr%2C+Garland%2C+TX+75040&size=665x441&source=outdoor&client=gme-redfin&signature=NGb3SntjlaQGTlFbEuwzPhjv_z4='],75040
31377106,602 SHADWELL DR GARLAND TX 75041,4,2.5,1976,2371,17398,334363,Redfin Estimate,32.8654255,-96.6388218,['https://ssl.cdn-redfin.com/photo/90/mbphoto/100/genMid.14547100_0.jpg'],75041
31377269,4102 KEYSTONE ST GARLAND TX 75041,4,3.5,1973,2280,16383,365383,Redfin Estimate,32.8679061,-96.6416606,['https://maps.googleapis.com/maps/api/streetview?channel=mb-pdp-publicrecord&location=4102+Keystone+St%2C+Garland%2C+TX+75041&size=665x441&source=outdoor&client=gme-redfin&signature=5I0znSF3-9ruCxxy10_VIAee0D8='],75041
31377307,4001 KEYSTONE ST GARLAND TX 75041,4,2.5,1974,2486,17398,415362,Redfin Estimate,32.8691261,-96.6422242,['https://maps.googleapis.com/maps/api/streetview?channel=mb-pdp-publicrecord&location=4001+Keystone+St%2C+Garland%2C+TX+75041&size=665x441&source=outdoor&client=gme-redfin&signature=S0t2KTESqevnzq7FrIq3fr99zxQ='],75041
31377302,3801 KEYSTONE ST GARLAND TX 75041,4,3.5,1974,2476,17324,439894,Redfin Estimate,32.8707048,-96.6422242,['https://maps.googleapis.com/maps/api/streetview?channel=mb-pdp-publicrecord&location=3801+Keystone+St%2C+Garland%2C+TX+75041&size=665x441&source=outdoor&client=gme-redfin&signature=S12HS7GNJVLeuG6apqsr-Ridt3A='],75041
31373020,1505 MARSDEN CT GARLAND TX 75042,4,3.5,1997,3410,8294,539986,Redfin Estimate,32.92719,-96.6628723,['https://ssl.cdn-redfin.com/photo/90/mbphoto/323/genMid.12057323_1.jpg'],75042
31372962,1718 JENNIFER DR GARLAND TX 75042,3,2.0,1998,2158,18726,425093,Redfin Estimate,32.9288945,-96.65926,['https://maps.googleapis.com/maps/api/streetview?channel=mb-pdp-publicrecord&location=1718+Jennifer+Dr%2C+Garland%2C+TX+75042&size=665x441&source=outdoor&client=gme-redfin&signature=shOlBp-zKm4M_Ajalg0AO-0Eq-Q='],75042
31372946,1326 JENNIFER DR GARLAND TX 75042,5,2.5,1998,2493,7092,428495,Redfin Estimate,32.9257159,-96.6592809,['https://maps.googleapis.com/maps/api/streetview?channel=mb-pdp-publicrecord&location=1326+Jennifer+Dr%2C+Garland%2C+TX+75042&size=665x441&source=outdoor&client=gme-redfin&signature=wLi2YeuxERfvYDq0DAF7MmpE-uU='],75042
31372944,1318 JENNIFER DR GARLAND TX 75042,4,2.0,1998,2527,6355,433661,Redfin Estimate,32.9252962,-96.6593435,['https://maps.googleapis.com/maps/api/streetview?channel=mb-pdp-publicrecord&location=1318+Jennifer+Dr%2C+Garland%2C+TX+75042&size=665x441&source=outdoor&client=gme-redfin&signature=Uyj5plFJjUWjurEE9Un_Xt6Y_Vc='],75042
31372936,1202 JENNIFER DR GARLAND TX 75042,5,2.5,1998,2164,7941,437657,Redfin Estimate,32.9237184,-96.6593435,['https://maps.googleapis.com/maps/api/streetview?channel=mb-pdp-publicrecord&location=1202+Jennifer+Dr%2C+Garland%2C+TX+75042&size=665x441&source=outdoor&client=gme-redfin&signature=UiDwIl7Lh_1HZutlUJB8tVvuhWc='],75042
31377351,302 CARMEN DR GARLAND TX 75041,3,1.0,1954,946,7802,210750,Redfin Estimate,32.891249,-96.6339376,['https://maps.googleapis.com/maps/api/streetview?channel=mb-pdp-publicrecord&location=302+Carmen+Dr%2C+Garland%2C+TX+75041&size=665x441&source=outdoor&client=gme-redfin&signature=wRYg9FhyeH3IZDi-GDfIlAAQMvs='],75041
31403646,2309 HIGHMONT DR GARLAND TX 75041,3,2.0,1985,1191,7065,242859,Redfin Estimate,32.8900997,-96.6176212,['https://ssl.cdn-redfin.com/photo/90/mbphoto/653/genMid.10845653_2.jpg'],75041
31381809,2918 RED GUM RD GARLAND TX 75044,3,2.0,1977,1473,7070,335660,Redfin Estimate,32.9472481,-96.6720643,['https://ssl.cdn-redfin.com/photo/90/mbphoto/226/genMid.13875226_1.jpg'],75044
31381817,2925 COTTON GUM RD GARLAND TX 75044,3,2.0,1978,1513,7070,318968,Redfin Estimate,32.9468579,-96.6728564,['https://ssl.cdn-redfin.com/photo/90/mbphoto/091/genMid.14486091_2.jpg'],75044
31381814,2934 COTTON GUM RD GARLAND TX 75044,3,2.0,1978,1689,8551,300847,Redfin Estimate,32.946396,-96.6732221,['https://maps.googleapis.com/maps/api/streetview?channel=mb-pdp-publicrecord&location=2934+Cotton+Gum+Rd%2C+Garland%2C+TX+75044&size=665x441&source=outdoor&client=gme-redfin&signature=Pox061F6cebEVuqYtkeIAnnPtsQ='],75044
31381836,2917 SWEET GUM ST GARLAND TX 75044,3,2.0,1978,1847,7318,296190,Redfin Estimate,32.9460494,-96.6724366,['https://maps.googleapis.com/maps/api/streetview?channel=mb-pdp-publicrecord&location=2917+Sweet+Gum+St%2C+Garland%2C+TX+75044&size=665x441&source=outdoor&client=gme-redfin&signature=3-xw16veCdmB8Uxt_1NT_LmVrTI='],75044
31381848,2918 SWEET GUM ST GARLAND TX 75044,3,2.0,1977,2096,7070,334063,Redfin Estimate,32.945623,-96.6723208,['https://maps.googleapis.com/maps/api/streetview?channel=mb-pdp-publicrecord&location=2918+Sweet+Gum+St%2C+Garland%2C+TX+75044&size=665x441&source=outdoor&client=gme-redfin&signature=fNxi-B4lIn4kOuF0zdF5uA_V3Bo='],75044
31375864,420 CASCADE DR GARLAND TX 75041,3,2.0,2018,1614,7749,329383,Redfin Estimate,32.8935913,-96.6261463,['https://ssl.cdn-redfin.com/photo/90/mbphoto/171/genMid.13872171_0.jpg'],75041
31375917,400 CASCADE DR GARLAND TX 75041,3,1.0,1954,1186,7501,232901,Redfin Estimate,32.893541,-96.6270921,['https://maps.googleapis.com/maps/api/streetview?channel=mb-pdp-publicrecord&location=400+Cascade+Dr%2C+Garland%2C+TX+75041&size=665x441&source=outdoor&client=gme-redfin&signature=6fipRKxkBpivjiH-XrygZtcWrow='],75041
31380218,842 VILLA RIDGE DR GARLAND TX 75043,3,2.0,1979,1781,9004,283039,Redfin Estimate,32.8567601,-96.5953366,['https://maps.googleapis.com/maps/api/streetview?channel=mb-pdp-publicrecord&location=842+Villa+Ridge+Dr%2C+Garland%2C+TX+75043&size=665x441&source=outdoor&client=gme-redfin&signature=nCeMTRRVbzzYIZasTZHtKupfgmo='],75043
31380281,714 ANGLE RIDGE CIR GARLAND TX 75043,3,2.0,1975,1701,6708,374180,Redfin Estimate,32.8548522,-96.5948306,['https://ssl.cdn-redfin.com/photo/90/mbphoto/795/genMid.14592795_1.jpg'],75043
31380119,5106 BOCA RATON DR GARLAND TX 75043,3,2.0,1975,1602,7244,282108,Redfin Estimate,32.854724,-96.5932065,['https://ssl.cdn-redfin.com/photo/90/mbphoto/443/genMid.10854443_2.jpg'],75043
31383373,2221 NEWCASTLE DR GARLAND TX 75041,6,3.0,1964,2760,10624,356838,Redfin Estimate,32.8913285,-96.6631191,['https://ssl.cdn-redfin.com/photo/90/mbphoto/480/genMid.10757480_0.jpg'],75041
31383378,2218 NOTTINGHAM DR GARLAND TX 75041,3,2.0,1964,1472,8124,219155,Redfin Estimate,32.8916543,-96.6635828,['https://maps.googleapis.com/maps/api/streetview?channel=mb-pdp-publicrecord&location=2218+Nottingham+Dr%2C+Garland%2C+TX+75041&size=665x441&source=outdoor&client=gme-redfin&signature=5oik0_2ER-N0sAVcYdqvanIWQqM='],75041
31383325,2317 NOTTINGHAM DR GARLAND TX 75041,3,2.0,1960,1926,8124,265110,Redfin Estimate,32.8901727,-96.6640835,['https://ssl.cdn-redfin.com/photo/90/mbphoto/072/genMid.11185072_3.jpg'],75041
31383323,2325 NOTTINGHAM DR GARLAND TX 75041,3,2.0,1961,1492,7501,309147,Redfin Estimate,32.8898197,-96.6641252,['https://ssl.cdn-redfin.com/photo/90/mbphoto/399/genMid.11013399_2.jpg'],75041
31379417,2113 SHARON DR GARLAND TX 75041,3,1.0,1952,864,10224,189213,Redfin Estimate,32.8929434,-96.6490923,['https://maps.googleapis.com/maps/api/streetview?channel=mb-pdp-publicrecord&location=2113+Sharon+Dr%2C+Garland%2C+TX+75041&size=665x441&source=outdoor&client=gme-redfin&signature=0vp4hatEG5aX5hr6Uy7ILlFPa7E='],75041
31379379,2113 CAMDEN DR GARLAND TX 75041,3,1.0,1952,719,7200,187629,Redfin Estimate,32.8911258,-96.6494681,['https://maps.googleapis.com/maps/api/streetview?channel=mb-pdp-publicrecord&location=2113+Camden+Dr%2C+Garland%2C+TX+75041&size=665x441&source=outdoor&client=gme-redfin&signature=5VQOMixPVNBUunVdoOGLiZIA_E8='],75041
31379378,2125 CAMDEN DR GARLAND TX 75041,3,1.0,1952,683,7200,221790,Redfin Estimate,32.8906662,-96.6494876,['https://ssl.cdn-redfin.com/photo/90/mbphoto/361/genMid.13789361_0.jpg'],75041
31379376,2133 CAMDEN DR GARLAND TX 75041,3,1.0,1952,972,7200,216758,Redfin Estimate,32.8903367,-96.6494681,['https://maps.googleapis.com/maps/api/streetview?channel=mb-pdp-publicrecord&location=2133+Camden+Dr%2C+Garland%2C+TX+75041&size=665x441&source=outdoor&client=gme-redfin&signature=v4jbbxKM74Ewqg6G50X6NVbVpXs='],75041
31379384,1344 DEVONWOOD DR GARLAND TX 75041,3,1.0,1952,744,9300,199432,Redfin Estimate,32.8904742,-96.6501295,['https://maps.googleapis.com/maps/api/streetview?channel=mb-pdp-publicrecord&location=1344+Devonwood+Dr%2C+Garland%2C+TX+75041&size=665x441&source=outdoor&client=gme-redfin&signature=pSNscRNSO7ved8KaeGjFqxc5VaQ='],75041
31379393,1309 DEVONWOOD DR GARLAND TX 75041,3,1.0,1952,1008,7562,210221,Redfin Estimate,32.8892739,-96.6488418,['https://maps.googleapis.com/maps/api/streetview?channel=mb-pdp-publicrecord&location=1309+Devonwood+Dr%2C+Garland%2C+TX+75041&size=665x441&source=outdoor&client=gme-redfin&signature=tJY26CWFE3X5u4-dAL3HUIiXZIs='],75041
31379516,1372 ELMHURST DR GARLAND TX 75041,3,1.0,1952,1012,8699,211190,Redfin Estimate,32.8882788,-96.6518898,['https://maps.googleapis.com/maps/api/streetview?channel=mb-pdp-publicrecord&location=1372+Elmhurst+Dr%2C+Garland%2C+TX+75041&size=665x441&source=outdoor&client=gme-redfin&signature=FnOvmGN7jXMuLPkCc_-B-hZ2oac='],75041
31379488,1312 GREENWOOD DR GARLAND TX 75041,3,1.0,1952,902,7876,196726,Redfin Estimate,32.8883398,-96.6490923,['https://maps.googleapis.com/maps/api/streetview?channel=mb-ldp-publicrecord&location=1312+Greenwood+Dr%2C+Garland%2C+TX+75041&size=665x441&source=outdoor&client=gme-redfin&signature=Rj28gcd3EELKFI1g5JzU-HeHZfU='],75041
31379493,1332 GREENWOOD DR GARLAND TX 75041,3,1.0,1952,977,7200,223527,Redfin Estimate,32.8885518,-96.6500526,['https://ssl.cdn-redfin.com/photo/90/mbphoto/590/genMid.14200590_1.jpg'],75041
31379485,1352 GREENWOOD DR GARLAND TX 75041,3,3.0,1952,932,7200,207772,Redfin Estimate,32.8890358,-96.6508459,['https://maps.googleapis.com/maps/api/streetview?channel=mb-ldp-publicrecord&location=1352+Greenwood+Dr%2C+Garland%2C+TX+75041&size=665x441&source=outdoor&client=gme-redfin&signature=P7TyvK9zBfnwjoyWCSSuLxN6phM='],75041
31379453,304 W AVE B  GARLAND TX 75040,2,1.0,1951,1176,7501,201952,Redfin Estimate,32.9105908,-96.6346055,['https://maps.googleapis.com/maps/api/streetview?channel=mb-pdp-publicrecord&location=304+W+Avenue+B%2C+Garland%2C+TX+75040&size=665x441&source=outdoor&client=gme-redfin&signature=wP9umFKsPblDxLv3M5Dmf4WKNnE='],75040
31386091,400 W AVE E  GARLAND TX 75040,3,2.0,1941,1485,10999,249145,Redfin Estimate,32.9076998,-96.6354455,['https://maps.googleapis.com/maps/api/streetview?channel=mb-pdp-publicrecord&location=400+W+Avenue+E%2C+Garland%2C+TX+75040&size=665x441&source=outdoor&client=gme-redfin&signature=JodUZY6qdX6cxsz8wAMqVEka_lU='],75040
31386096,307 W AVE F  GARLAND TX 75040,2,1.0,1948,1082,9901,196721,Redfin Estimate,32.9070113,-96.6351482,['https://ssl.cdn-redfin.com/photo/90/mbphoto/528/genMid.10348528_0.jpg'],75040
31383467,404 W AVE D  GARLAND TX 75040,2,1.0,1945,978,8699,202649,Redfin Estimate,32.9086857,-96.635793,['https://maps.googleapis.com/maps/api/streetview?channel=mb-pdp-publicrecord&location=404+W+Avenue+D%2C+Garland%2C+TX+75040&size=665x441&source=outdoor&client=gme-redfin&signature=o5jOPmWUPwuNHlZOOIX-U-CZjB4='],75040
31387514,714 E MUIRFIELD RD GARLAND TX 75044,5,4.0,2001,5041,24664,877041,Redfin Estimate,32.9632699,-96.6230018,['https://maps.googleapis.com/maps/api/streetview?channel=mb-pdp-publicrecord&location=714+E+Muirfield+Rd%2C+Garland%2C+TX+75044&size=665x441&source=outdoor&client=gme-redfin&signature=h-k41eFpGIsi0nZkeAYnUWAxfeM='],75044
31388275,1009 PALM DESERT DR GARLAND TX 75044,4,4.0,2005,3758,7802,705479,Redfin Estimate,32.9638032,-96.625339,['https://ssl.cdn-redfin.com/photo/90/mbphoto/398/genMid.10571398_0.jpg'],75044
31388235,709 PALM DESERT DR GARLAND TX 75044,3,2.5,1992,2464,7802,487873,Redfin Estimate,32.9610225,-96.6265495,['https://maps.googleapis.com/maps/api/streetview?channel=mb-pdp-publicrecord&location=709+Palm+Desert+Dr%2C+Garland%2C+TX+75044&size=665x441&source=outdoor&client=gme-redfin&signature=rSDPQeBeRpXRxHpI8Yl1Fp2lVZc='],75044
31389692,726 PALM DESERT DR GARLAND TX 75044,3,2.5,1992,2464,7802,459437,Redfin Estimate,32.961069,-96.625673,['https://maps.googleapis.com/maps/api/streetview?channel=mb-pdp-publicrecord&location=726+Palm+Desert+Dr%2C+Garland%2C+TX+75044&size=665x441&source=outdoor&client=gme-redfin&signature=SQap5-YbIpi7TLSarMwAZi8JHCo='],75044
31387393,402 RIVERCOVE DR GARLAND TX 75044,4,3.5,1996,2674,7553,518152,Redfin Estimate,32.9675181,-96.6317044,['https://maps.googleapis.com/maps/api/streetview?channel=mb-pdp-publicrecord&location=402+Rivercove+Dr%2C+Garland%2C+TX+75044&size=665x441&source=outdoor&client=gme-redfin&signature=3sNlne-9EOK2ZvgXPIBUZ6SylK0='],75044
31387395,406 RIVERCOVE DR GARLAND TX 75044,3,2.5,1995,2780,7449,483300,Redfin Estimate,32.967322,-96.6316835,['https://ssl.cdn-redfin.com/photo/90/mbphoto/425/genMid.11656425_3.jpg'],75044
31387400,514 THUNDERBROOK RD GARLAND TX 75044,3,2.5,1993,2615,7353,490478,Redfin Estimate,32.9654898,-96.6331862,['https://maps.googleapis.com/maps/api/streetview?channel=mb-pdp-publicrecord&location=514+Thunderbrook+Rd%2C+Garland%2C+TX+75044&size=665x441&source=outdoor&client=gme-redfin&signature=esGTeGTU51kCuKutLq2NEI77dQ0='],75044
31387405,502 THUNDERBROOK RD GARLAND TX 75044,3,2.0,1995,2150,7431,450700,Redfin Estimate,32.9658209,-96.6327271,['https://maps.googleapis.com/maps/api/streetview?channel=mb-pdp-publicrecord&location=502+Thunderbrook+Rd%2C+Garland%2C+TX+75044&size=665x441&source=outdoor&client=gme-redfin&signature=1otbIjtaCq1-xqNDvfvUcToBxHE='],75044
31387412,405 RIVERCOVE DR GARLAND TX 75044,3,2.0,1997,2635,7610,498376,Redfin Estimate,32.9672331,-96.6321218,['https://maps.googleapis.com/maps/api/streetview?channel=mb-pdp-publicrecord&location=405+Rivercove+Dr%2C+Garland%2C+TX+75044&size=665x441&source=outdoor&client=gme-redfin&signature=xq9OOdCGkSq-mljzG0YYWNefbJA='],75044
31391572,4612 CONCORD DR GARLAND TX 75042,3,2.0,1966,1463,7022,303067,Redfin Estimate,32.92721,-96.7026238,['https://ssl.cdn-redfin.com/photo/90/mbphoto/822/genMid.11051822_2.jpg'],75042
31391573,1602 ETON PL GARLAND TX 75042,3,2.0,1966,1268,7200,276999,Redfin Estimate,32.9273373,-96.7004778,['https://maps.googleapis.com/maps/api/streetview?channel=mb-pdp-publicrecord&location=1602+Eton+Pl%2C+Garland%2C+TX+75042&size=665x441&source=outdoor&client=gme-redfin&signature=xyP5bdCIPpF12AjOYg2gGHuNqTo='],75042
31391576,1606 ETON PL GARLAND TX 75042,3,2.0,1966,1327,6538,324298,Redfin Estimate,32.9275427,-96.7004853,['https://ssl.cdn-redfin.com/photo/90/mbphoto/833/genMid.13180833_0.jpg'],75042
31391588,4517 CONCORD DR GARLAND TX 75042,3,2.0,1965,1416,7022,335763,Redfin Estimate,32.9276129,-96.7012842,['https://ssl.cdn-redfin.com/photo/90/mbphoto/260/genMid.10954260_2.jpg'],75042
31391529,4709 CONCORD DR GARLAND TX 75042,3,2.0,1967,1686,7022,308338,Redfin Estimate,32.9278341,-96.7040209,['https://ssl.cdn-redfin.com/photo/90/mbphoto/130/genMid.11191130_3.jpg'],75042
31393038,1610 GLENVILLE DR GARLAND TX 75042,3,2.0,1964,1416,9448,291796,Redfin Estimate,32.9282702,-96.7049467,['https://maps.googleapis.com/maps/api/streetview?channel=mb-pdp-publicrecord&location=1610+Glenville+Dr%2C+Garland%2C+TX+75042&size=665x441&source=outdoor&client=gme-redfin&signature=EfNoinYCZpZ7KO6oZA2u4vjJiUk='],75042
31393043,4722 BETHANY DR GARLAND TX 75042,3,1.5,1966,1319,7135,317511,Redfin Estimate,32.9282457,-96.7046063,['https://ssl.cdn-redfin.com/photo/90/mbphoto/028/genMid.11619028_2.jpg'],75042
32264602,1014 SPANISH MOSS DR GARLAND TX 75040,4,2.5,2004,2730,479,403029,Redfin Estimate,32.9499498,-96.6427331,['https://maps.googleapis.com/maps/api/streetview?channel=mb-pdp-publicrecord&location=1014+Spanish+Moss+Dr%2C+Garland%2C+TX+75040&size=665x441&source=outdoor&client=gme-redfin&signature=iGbURo6YoBAuvki4hCX1B_t8ZCQ='],75040
31387410,401 THUNDERBROOK RD GARLAND TX 75044,3,2.0,1994,2131,10724,478239,Redfin Estimate,32.9668091,-96.6322679,['https://ssl.cdn-redfin.com/photo/90/mbphoto/164/genMid.10293164_0.jpg'],75044
31387449,510 RIVERCOVE DR GARLAND TX 75044,4,3.5,1994,3068,7161,533619,Redfin Estimate,32.9654797,-96.6317253,['https://maps.googleapis.com/maps/api/streetview?channel=mb-pdp-publicrecord&location=510+Rivercove+Dr%2C+Garland%2C+TX+75044&size=665x441&source=outdoor&client=gme-redfin&signature=fV-3cI7lU0WSfCBGJ3KGcdPipf4='],75044
31387444,522 RIVERCOVE DR GARLAND TX 75044,4,2.0,1995,2217,7784,444112,Redfin Estimate,32.9651049,-96.6321844,['https://ssl.cdn-redfin.com/photo/90/mbphoto/187/genMid.13953187_0.jpg'],75044
31387563,5917 LONG COVE  GARLAND TX 75044,3,3.5,1995,3166,7349,553618,Redfin Estimate,32.9679638,-96.6352734,['https://maps.googleapis.com/maps/api/streetview?channel=mb-pdp-publicrecord&location=5917+Long+Cv%2C+Garland%2C+TX+75044&size=665x441&source=outdoor&client=gme-redfin&signature=ZBS3erc2qoJehXm46S07bABms-w='],75044
31389642,213 S FOREST CREST DR GARLAND TX 75042,3,2.0,1962,1620,9601,302464,Redfin Estimate,32.9116883,-96.6880599,['https://maps.googleapis.com/maps/api/streetview?channel=mb-pdp-publicrecord&location=213+S+Forest+Crest+Dr%2C+Garland%2C+TX+75042&size=665x441&source=outdoor&client=gme-redfin&signature=jNQDut6cieGfKa777ZtIg2Q3gsw='],75042
31389836,3513 CLASSIC DR GARLAND TX 75042,3,2.0,1961,1464,7501,276115,Redfin Estimate,32.9159421,-96.6839217,['https://maps.googleapis.com/maps/api/streetview?channel=mb-pdp-publicrecord&location=3513+Classic+Dr%2C+Garland%2C+TX+75042&size=665x441&source=outdoor&client=gme-redfin&signature=gBN9I5vooQOW2qXgvTEwk6RWZAU='],75042
31389812,3605 PLAZA PARK DR GARLAND TX 75042,3,2.0,1961,1691,7200,288615,Redfin Estimate,32.9151016,-96.6848848,['https://maps.googleapis.com/maps/api/streetview?channel=mb-pdp-publicrecord&location=3605+Plaza+Park+Dr%2C+Garland%2C+TX+75042&size=665x441&source=outdoor&client=gme-redfin&signature=Uo5VaLI8kmIS4wsI5Fun34E3_VQ='],75042
31389783,3717 PLAZA PARK DR GARLAND TX 75042,3,2.0,1961,1203,11809,275695,Redfin Estimate,32.9148447,-96.6872327,['https://ssl.cdn-redfin.com/photo/90/mbphoto/572/genMid.13069572_0.jpg'],75042
31389795,116 N FOREST CREST DR GARLAND TX 75042,3,2.0,1962,1195,7022,267753,Redfin Estimate,32.9140932,-96.6875949,['https://maps.googleapis.com/maps/api/streetview?channel=mb-pdp-publicrecord&location=116+N+Forest+Crest+Dr%2C+Garland%2C+TX+75042&size=665x441&source=outdoor&client=gme-redfin&signature=CZLMzEvSp6B3_mZcqn0K_9M6-fM='],75042
31393795,5045 COLLINGWOOD DR GARLAND TX 75043,2,2.0,1974,1102,7723,223141,Redfin Estimate,32.853718,-96.609309,['https://maps.googleapis.com/maps/api/streetview?channel=mb-pdp-publicrecord&location=5045+Collingwood+Dr%2C+Garland%2C+TX+75043&size=665x441&source=outdoor&client=gme-redfin&signature=y-1p-Jsolf1AmJtD-AvJ51kGnK0='],75043
31395137,4817 REDWOOD DR GARLAND TX 75043,3,2.0,1973,1551,7205,278197,Redfin Estimate,32.8561868,-96.6111915,['https://maps.googleapis.com/maps/api/streetview?channel=mb-pdp-publicrecord&location=4817+Redwood+Dr%2C+Garland%2C+TX+75043&size=665x441&source=outdoor&client=gme-redfin&signature=JXiGWRd5LvDSpB-_v-yJ-BDq3Ak='],75043
31395143,4825 REDWOOD DR GARLAND TX 75043,3,2.0,1973,1822,9348,294617,Redfin Estimate,32.8563427,-96.6107325,['https://ssl.cdn-redfin.com/photo/90/mbphoto/150/genMid.11152150_3.jpg'],75043
31395096,4841 REDWOOD PL GARLAND TX 75043,3,2.0,1973,1527,7057,297666,Redfin Estimate,32.8569393,-96.6102317,['https://maps.googleapis.com/maps/api/streetview?channel=mb-pdp-publicrecord&location=4841+Redwood+Pl%2C+Garland%2C+TX+75043&size=665x441&source=outdoor&client=gme-redfin&signature=-SjL7beFk445Z5ik5Q8OFjkQW_g='],75043
31395098,4849 REDWOOD DR GARLAND TX 75043,3,2.0,1973,1385,8651,276402,Redfin Estimate,32.8565534,-96.6100648,['https://maps.googleapis.com/maps/api/streetview?channel=mb-pdp-publicrecord&location=4849+Redwood+Dr%2C+Garland%2C+TX+75043&size=665x441&source=outdoor&client=gme-redfin&signature=87mecvEWxFUZHF-3PTX_IQFkV7U='],75043
31371169,1609 JAMES GOOD LN GARLAND TX 75043,3,3.0,1978,2283,13177,399894,Redfin Estimate,32.8878576,-96.6052246,['https://ssl.cdn-redfin.com/photo/90/mbphoto/814/genMid.14450814_0.jpg'],75043
31371216,2609 COUNTRY VALLEY RD GARLAND TX 75043,4,2.5,1983,2902,16553,517365,Redfin Estimate,32.8873732,-96.6090008,['https://ssl.cdn-redfin.com/photo/90/mbphoto/801/genMid.14642801_2.jpg'],75043
31371195,2617 COUNTRY VALLEY RD GARLAND TX 75043,4,3.0,1979,3027,16440,446763,Redfin Estimate,32.8869426,-96.6084375,['https://maps.googleapis.com/maps/api/streetview?channel=mb-pdp-publicrecord&location=2617+Country+Valley+Rd%2C+Garland%2C+TX+75043&size=665x441&source=outdoor&client=gme-redfin&signature=fY1ruY8oGwnHheM3Q_3Vkw_1J6M='],75043
31371197,2701 COUNTRY VALLEY RD GARLAND TX 75043,3,3.0,1978,2639,13700,385138,Redfin Estimate,32.8864659,-96.6079159,['https://ssl.cdn-redfin.com/photo/90/mbphoto/059/genMid.14138059_3.jpg'],75043
31397910,109 BELLWOOD DR GARLAND TX 75040,3,2.0,1984,1718,8398,317624,Redfin Estimate,32.9492756,-96.6299304,['https://ssl.cdn-redfin.com/photo/90/mbphoto/461/genMid.11871461_1.jpg'],75040
31397955,3102 KINGSWOOD DR GARLAND TX 75040,3,2.0,1984,1688,8586,343546,Redfin Estimate,32.9470705,-96.6277181,['https://maps.googleapis.com/maps/api/streetview?channel=mb-pdp-publicrecord&location=3102+Kingswood+Dr%2C+Garland%2C+TX+75040&size=665x441&source=outdoor&client=gme-redfin&signature=wxrm7_E0smHHqdu-QkL70iejodE='],75040
31397985,3121 FAIRWOOD DR GARLAND TX 75040,4,2.0,1984,1843,8398,349055,Redfin Estimate,32.9486174,-96.6274677,['https://ssl.cdn-redfin.com/photo/90/mbphoto/310/genMid.13710310_0.jpg'],75040
31397972,3210 MEADOWOOD DR GARLAND TX 75040,4,2.0,1984,1917,8398,350739,Redfin Estimate,32.9487462,-96.6283442,['https://maps.googleapis.com/maps/api/streetview?channel=mb-pdp-publicrecord&location=3210+Meadowood+Dr%2C+Garland%2C+TX+75040&size=665x441&source=outdoor&client=gme-redfin&signature=HIZW2nmQTqVxFKYxV5gVnfVw7J8='],75040
31398019,3214 FAIRWOOD DR GARLAND TX 75040,3,2.0,1984,1843,8398,354232,Redfin Estimate,32.9494783,-96.6277599,['https://maps.googleapis.com/maps/api/streetview?channel=mb-pdp-publicrecord&location=3214+Fairwood+Dr%2C+Garland%2C+TX+75040&size=665x441&source=outdoor&client=gme-redfin&signature=vins7Iz482pRN0PLE7HsjewvwUc='],75040
31397992,3609 WILLOWOOD DR GARLAND TX 75040,3,2.0,1984,2134,8398,376142,Redfin Estimate,32.9493035,-96.6269251,['https://ssl.cdn-redfin.com/photo/90/mbphoto/481/genMid.13483481_1.jpg'],75040
31398045,3709 WILLOWOOD DR GARLAND TX 75040,3,2.0,1984,1872,8398,319721,Redfin Estimate,32.9498816,-96.6275929,['https://ssl.cdn-redfin.com/photo/90/mbphoto/672/genMid.10682672_0.jpg'],75040
31398040,230 E RIDGEGATE DR GARLAND TX 75040,3,2.0,1986,1960,8546,344455,Redfin Estimate,32.948281,-96.6255477,['https://maps.googleapis.com/maps/api/streetview?channel=mb-pdp-publicrecord&location=230+E+Ridgegate+Dr%2C+Garland%2C+TX+75040&size=665x441&source=outdoor&client=gme-redfin&signature=SBRY-oJ3CryVjXtZe_8Rcwx67gw='],75040
31398038,238 E RIDGEGATE DR GARLAND TX 75040,3,2.0,1986,1772,8320,323115,Redfin Estimate,32.9485595,-96.6252556,['https://ssl.cdn-redfin.com/photo/90/mbphoto/227/genMid.10165227_0.jpg'],75040
31398044,246 E RIDGEGATE DR GARLAND TX 75040,4,2.0,1986,2056,8202,351731,Redfin Estimate,32.9487963,-96.6249217,['https://ssl.cdn-redfin.com/photo/90/mbphoto/709/genMid.10880709_2.jpg'],75040
30750523,1818 WINTERBERRY TRL GARLAND TX 75040,5,4.0,2007,3933,7362,557371,Redfin Estimate,32.9146622,-96.601991,['https://maps.googleapis.com/maps/api/streetview?channel=mb-pdp-publicrecord&location=1818+Winterberry+Trl%2C+Garland%2C+TX+75040&size=665x441&source=outdoor&client=gme-redfin&signature=RBx7QS8xLlMcm3BizTt-DR4r-hs='],75040
31397597,140 RUSTIC RIDGE DR GARLAND TX 75040,3,2.0,1983,1795,9439,336368,Redfin Estimate,32.9494344,-96.6318922,['https://maps.googleapis.com/maps/api/streetview?channel=mb-pdp-publicrecord&location=140+Rustic+Ridge+Dr%2C+Garland%2C+TX+75040&size=665x441&source=outdoor&client=gme-redfin&signature=Epraa7-D-uwt_JmGKqo4oP0hkyc='],75040
31397934,3213 MEADOWOOD DR GARLAND TX 75040,4,2.0,1984,1917,8398,331291,Redfin Estimate,32.9485466,-96.6288034,['https://ssl.cdn-redfin.com/photo/90/mbphoto/629/genMid.11396629_2.jpg'],75040
31397958,3122 FAIRWOOD DR GARLAND TX 75040,3,2.0,1984,1688,8398,334893,Redfin Estimate,32.9489211,-96.6271129,['https://ssl.cdn-redfin.com/photo/90/mbphoto/135/genMid.12153135_2.jpg'],75040
31398013,3222 FAIRWOOD DR GARLAND TX 75040,3,2.0,1984,1688,8398,273274,Redfin Estimate,32.9497258,-96.6280521,['https://ssl.cdn-redfin.com/photo/90/mbphoto/384/genMid.10992384_2.jpg'],75040
31393839,5025 BUTTONWOOD LN GARLAND TX 75043,2,2.0,1980,1506,2701,230901,Redfin Estimate,32.8522353,-96.6096058,['https://ssl.cdn-redfin.com/photo/90/mbphoto/938/genMid.13919938_0.jpg'],75043
31381769,3006 RIDGEMOOR DR GARLAND TX 75044,3,2.0,1977,1847,7688,307617,Redfin Estimate,32.947851,-96.6739821,['https://ssl.cdn-redfin.com/photo/90/mbphoto/368/genMid.10423368_0.jpg'],75044
31395420,4822 ROLLINGWOOD CT GARLAND TX 75043,2,2.5,1973,1626,2701,248344,Redfin Estimate,32.854838,-96.6095328,['https://ssl.cdn-redfin.com/photo/90/mbphoto/404/genMid.13285404_0.jpg'],75043
31395415,4816 ROLLINGWOOD CT GARLAND TX 75043,3,2.0,1973,1382,3241,211647,Redfin Estimate,32.8550643,-96.6100231,['https://ssl.cdn-redfin.com/photo/90/mbphoto/177/genMid.11723177_3.jpg'],75043
31389789,3702 PLAZA PARK DR GARLAND TX 75042,5,2.0,1962,1780,8808,368880,Redfin Estimate,32.9146533,-96.6864734,['https://ssl.cdn-redfin.com/photo/90/mbphoto/779/genMid.13592779_0.jpg'],75042
31389790,3634 PLAZA PARK DR GARLAND TX 75042,3,2.0,1962,1150,7200,264349,Redfin Estimate,32.9147142,-96.6862684,['https://maps.googleapis.com/maps/api/streetview?channel=mb-pdp-publicrecord&location=3634+Plaza+Park+Dr%2C+Garland%2C+TX+75042&size=665x441&source=outdoor&client=gme-redfin&signature=SJhQoY4PMGmXbompd6Wv0qW0zZ0='],75042
31380487,5301 MEADOWSIDE DR GARLAND TX 75043,3,2.0,1973,1721,7057,290575,Redfin Estimate,32.8517064,-96.5917876,['https://ssl.cdn-redfin.com/photo/90/mbphoto/031/genMid.13468031_1.jpg'],75043
31380472,918 MEADOWDALE CIR GARLAND TX 75043,3,2.0,1973,1550,8825,289344,Redfin Estimate,32.8522012,-96.5894546,['https://maps.googleapis.com/maps/api/streetview?channel=mb-pdp-publicrecord&location=32.8522012%2C-96.5894546&size=665x441&source=outdoor&client=gme-redfin&signature=wCm3ab-nc1WJGO43Z5yMnzz5Z94='],75043
31380233,953 MEADOWCOVE CIR GARLAND TX 75043,0,1.0,2023,2085,1,433749,Redfin Estimate,32.8535177,-96.59224,['https://maps.googleapis.com/maps/api/streetview?channel=mb-pdp-publicrecord&location=32.8535177%2C-96.59224&size=665x441&source=outdoor&client=gme-redfin&signature=GW8wzsD_li9hNc3x4H1f_Ujm1BY='],75043
31380238,909 MEADOWCOVE CIR GARLAND TX 75043,3,2.0,1974,1812,6970,244015,Redfin Estimate,32.8531133,-96.5921244,['https://ssl.cdn-redfin.com/photo/90/mbphoto/127/genMid.10975127_2.jpg'],75043
31380241,905 MEADOWCOVE CIR GARLAND TX 75043,2,2.0,1974,1583,6970,271118,Redfin Estimate,32.8529729,-96.5922912,['https://maps.googleapis.com/maps/api/streetview?channel=mb-pdp-publicrecord&location=905+Meadowcove+Cir%2C+Garland%2C+TX+75043&size=665x441&source=outdoor&client=gme-redfin&signature=jHuRbVy698KaExECaE3IuUnFRzM='],75043
31392956,1225 LAKESIDE DR GARLAND TX 75040,2,1.0,1949,828,7671,197766,Redfin Estimate,32.9182263,-96.6460026,['https://maps.googleapis.com/maps/api/streetview?channel=mb-pdp-publicrecord&location=1225+Lakeside+Dr%2C+Garland%2C+TX+75040&size=665x441&source=outdoor&client=gme-redfin&signature=5zU6QKum3zvLbeih0K72TR209Mg='],75040
31392970,508 HILLCREST DR GARLAND TX 75040,3,2.0,1949,1708,8821,256441,Redfin Estimate,32.9167705,-96.6441634,['https://maps.googleapis.com/maps/api/streetview?channel=mb-pdp-publicrecord&location=508+Hillcrest+Dr%2C+Garland%2C+TX+75040&size=665x441&source=outdoor&client=gme-redfin&signature=GBymMC8EMnOVAJmVP5ouP19ND44='],75040
31392779,1116 DENT ST GARLAND TX 75040,3,1.0,1949,948,7200,211053,Redfin Estimate,32.9211704,-96.644009,['https://ssl.cdn-redfin.com/photo/90/mbphoto/765/genMid.11731765_3.jpg'],75040
31392783,1324 MEADOWBROOK DR GARLAND TX 75040,2,1.0,1949,796,7092,182626,Redfin Estimate,32.919552,-96.6475397,['https://ssl.cdn-redfin.com/photo/90/mbphoto/830/genMid.11529830_4.jpg'],75040
30749970,1813 RED CEDAR TRL GARLAND TX 75040,4,3.5,2004,3816,7819,554282,Redfin Estimate,32.913426,-96.6021579,['https://maps.googleapis.com/maps/api/streetview?channel=mb-pdp-publicrecord&location=1813+Red+Cedar+Trl%2C+Garland%2C+TX+75040&size=665x441&source=outdoor&client=gme-redfin&signature=iXPhd4kicytMn3uiMQ0EnmEqC38='],75040
30749975,1801 RED CEDAR TRL GARLAND TX 75040,4,3.5,2004,3819,7802,519409,Redfin Estimate,32.9133907,-96.6028254,['https://ssl.cdn-redfin.com/photo/90/mbphoto/188/genMid.11906188_1.jpg'],75040
30750522,1814 WINTERBERRY TRL GARLAND TX 75040,5,4.0,2007,4214,7362,597126,Redfin Estimate,32.9146534,-96.6021579,['https://ssl.cdn-redfin.com/photo/90/mbphoto/964/genMid.10860964_2.jpg'],75040
30750521,1902 WINTERBERRY TRL GARLAND TX 75040,5,3.5,2004,2980,12637,507049,Redfin Estimate,32.9145877,-96.6017407,['https://ssl.cdn-redfin.com/photo/90/mbphoto/438/genMid.13463438_0.jpg'],75040
31397927,3105 KINGSWOOD DR GARLAND TX 75040,3,2.0,1984,1688,8398,292116,Redfin Estimate,32.946908,-96.6283025,['https://ssl.cdn-redfin.com/photo/90/mbphoto/900/genMid.13685900_0.jpg'],75040
31397929,3117 MEADOWOOD DR GARLAND TX 75040,3,2.0,1984,1843,8398,348403,Redfin Estimate,32.9478875,-96.6280103,['https://maps.googleapis.com/maps/api/streetview?channel=mb-pdp-publicrecord&location=3117+Meadowood+Dr%2C+Garland%2C+TX+75040&size=665x441&source=outdoor&client=gme-redfin&signature=huoty3IBs_cLcupFnwNVwbb5dsM='],75040
31397969,3206 MEADOWOOD DR GARLAND TX 75040,3,2.0,1984,1759,8398,353172,Redfin Estimate,32.948582,-96.6281355,['https://maps.googleapis.com/maps/api/streetview?channel=mb-pdp-publicrecord&location=3206+Meadowood+Dr%2C+Garland%2C+TX+75040&size=665x441&source=outdoor&client=gme-redfin&signature=zTDNj0Qvyc4ZqRp9GI3N8WfpeOE='],75040
31397962,3106 FAIRWOOD DR GARLAND TX 75040,3,2.0,1984,1759,8398,334227,Redfin Estimate,32.9483638,-96.626466,['https://ssl.cdn-redfin.com/photo/90/mbphoto/290/genMid.13953290_0.jpg'],75040
31398008,210 E RIDGEGATE DR GARLAND TX 75040,3,2.0,1984,1675,8398,278713,Redfin Estimate,32.9475773,-96.6264242,['https://ssl.cdn-redfin.com/photo/90/mbphoto/923/genMid.10083923_0.jpg'],75040
31398080,3721 CRESTSTONE DR GARLAND TX 75040,4,2.0,1997,1913,8398,309290,Redfin Estimate,32.9508358,-96.6273634,['https://ssl.cdn-redfin.com/photo/90/mbphoto/294/genMid.11260294_2.jpg'],75040
31398069,3614 WILLOWOOD DR GARLAND TX 75040,4,2.0,1984,2140,8398,368497,Redfin Estimate,32.9497966,-96.6267164,['https://maps.googleapis.com/maps/api/streetview?channel=mb-pdp-publicrecord&location=3614+Willowood+Dr%2C+Garland%2C+TX+75040&size=665x441&source=outdoor&client=gme-redfin&signature=FkA2n-SBehSD-F82rRaxZDJOXKU='],75040
31349036,5326 ANCHOR COVE CIR GARLAND TX 75043,4,2.0,1984,1867,8721,321932,Redfin Estimate,32.8490501,-96.552548,['https://maps.googleapis.com/maps/api/streetview?channel=mb-pdp-publicrecord&location=5326+Anchor+Cove+Cir%2C+Garland%2C+TX+75043&size=665x441&source=outdoor&client=gme-redfin&signature=fo0CswnfcFwdUn2dLjsBSwebNKI='],75043
31364057,2930 MEADOW PARK DR GARLAND TX 75040,3,2.0,1977,1683,7131,301297,Redfin Estimate,32.9461696,-96.6456668,['https://ssl.cdn-redfin.com/photo/90/mbphoto/001/genMid.10343001_0.jpg'],75040
32203746,3501 CALAVERAS COVE DR GARLAND TX 75040,4,2.5,2000,2881,9235,437196,Redfin Estimate,32.947505,-96.6376946,['https://maps.googleapis.com/maps/api/streetview?channel=mb-pdp-publicrecord&location=3501+Calaveras+Cove+Dr%2C+Garland%2C+TX+75040&size=665x441&source=outdoor&client=gme-redfin&signature=0dHcvp6CWgo7D5VdpMJu0QTB9L8='],75040
32203736,3609 ESCABOSA DR GARLAND TX 75040,4,2.5,2000,3085,10319,447925,Redfin Estimate,32.9483954,-96.6374401,['https://ssl.cdn-redfin.com/photo/90/mbphoto/042/genMid.10454042_0.jpg'],75040
32203784,614 CRESTED COVE DR GARLAND TX 75040,3,2.5,2000,2746,10363,474075,Redfin Estimate,32.9483381,-96.6362787,['https://maps.googleapis.com/maps/api/streetview?channel=mb-pdp-publicrecord&location=614+Crested+Cove+Dr%2C+Garland%2C+TX+75040&size=665x441&source=outdoor&client=gme-redfin&signature=W6uQQ12H9x45R1JR8eGQXxoCjBk='],75040
32203778,902 CRESTED COVE DR GARLAND TX 75040,4,2.0,2002,2363,6891,415232,Redfin Estimate,32.9467434,-96.637984,['https://maps.googleapis.com/maps/api/streetview?channel=mb-pdp-publicrecord&location=902+Crested+Cove+Dr%2C+Garland%2C+TX+75040&size=665x441&source=outdoor&client=gme-redfin&signature=BBmyxJPzRQGvb8o8iJOLNEXyeSg='],75040
31376005,4205 CRYSTAL LN GARLAND TX 75043,4,2.0,1995,1950,6299,299264,Redfin Estimate,32.8411273,-96.5677042,['https://ssl.cdn-redfin.com/photo/90/mbphoto/403/genMid.12158403_1.jpg'],75043
31377501,4214 CRYSTAL LN GARLAND TX 75043,3,2.0,1994,1762,6181,301044,Redfin Estimate,32.840741,-96.567356,['https://maps.googleapis.com/maps/api/streetview?channel=mb-pdp-publicrecord&location=4214+Crystal+Ln%2C+Garland%2C+TX+75043&size=665x441&source=outdoor&client=gme-redfin&signature=TTpH2g0AuojlwYT2-FyePxaKgg4='],75043
31397903,213 BELLWOOD DR GARLAND TX 75040,3,2.0,1984,1820,8398,340860,Redfin Estimate,32.9500276,-96.6289703,['https://maps.googleapis.com/maps/api/streetview?channel=mb-pdp-publicrecord&location=213+Bellwood+Dr%2C+Garland%2C+TX+75040&size=665x441&source=outdoor&client=gme-redfin&signature=-Y-zIgtDKYZzPaFbnD-NEcaQRnM='],75040
31397907,117 BELLWOOD DR GARLAND TX 75040,3,2.0,1984,1965,8398,320146,Redfin Estimate,32.9495102,-96.6296382,['https://ssl.cdn-redfin.com/photo/90/mbphoto/848/genMid.11826848_6.jpg'],75040
31397912,101 BELLWOOD DR GARLAND TX 75040,3,2.0,1984,1663,5998,320723,Redfin Estimate,32.9490496,-96.6302671,['https://maps.googleapis.com/maps/api/streetview?channel=mb-pdp-publicrecord&location=101+Bellwood+Dr%2C+Garland%2C+TX+75040&size=665x441&source=outdoor&client=gme-redfin&signature=NgpTfYUXSLlW75xDTnXFRrDIxMQ='],75040
31397915,3217 KINGSWOOD DR GARLAND TX 75040,3,2.0,1984,1663,8398,323092,Redfin Estimate,32.9481659,-96.6297843,['https://maps.googleapis.com/maps/api/streetview?channel=mb-pdp-publicrecord&location=3217+Kingswood+Dr%2C+Garland%2C+TX+75040&size=665x441&source=outdoor&client=gme-redfin&signature=rfMvJgT3q-eeuLRABODvarDWE9Q='],75040
31398059,3718 CRESTSTONE DR GARLAND TX 75040,3,2.0,1984,1791,8398,344107,Redfin Estimate,32.9510567,-96.6268391,['https://maps.googleapis.com/maps/api/streetview?channel=mb-pdp-publicrecord&location=3718+Creststone+Dr%2C+Garland%2C+TX+75040&size=665x441&source=outdoor&client=gme-redfin&signature=w63Z-Ytbxot_tgA1mR7AQ2B65u4='],75040
31399496,3510 CRESTSTONE DR GARLAND TX 75040,3,2.0,1984,2109,8398,364967,Redfin Estimate,32.9496572,-96.6252138,['https://maps.googleapis.com/maps/api/streetview?channel=mb-pdp-publicrecord&location=3510+Creststone+Dr%2C+Garland%2C+TX+75040&size=665x441&source=outdoor&client=gme-redfin&signature=C8l3viWoMBdg8bGpQK5O4lgJmLg='],75040
31399495,261 E RIDGEGATE DR GARLAND TX 75040,4,2.0,1986,2080,8520,347085,Redfin Estimate,32.949647,-96.6246271,['https://maps.googleapis.com/maps/api/streetview?channel=mb-pdp-publicrecord&location=261+E+Ridgegate+Dr%2C+Garland%2C+TX+75040&size=665x441&source=outdoor&client=gme-redfin&signature=X1uRbk2XRcGgfF0Pc-CcjPOSYq0='],75040
31377532,6021 SASAKI WAY  GARLAND TX 75043,3,2.0,1996,1468,9039,282199,Redfin Estimate,32.8419374,-96.5652231,['https://ssl.cdn-redfin.com/photo/90/mbphoto/251/genMid.10645251_0.jpg'],75043
31400489,1101 LARCHFIELD DR GARLAND TX 75042,3,2.0,1973,1503,10202,288401,Redfin Estimate,32.9232355,-96.6531842,['https://maps.googleapis.com/maps/api/streetview?channel=mb-pdp-publicrecord&location=1101+Larchfield+Dr%2C+Garland%2C+TX+75042&size=665x441&source=outdoor&client=gme-redfin&signature=ONJm3fULV1i853oEeVJCp23pZhw='],75042
31397017,2038 GLENBROOK MEADOWS DR GARLAND TX 75040,3,2.0,1977,1864,7131,302082,Redfin Estimate,32.9326397,-96.6363498,['https://ssl.cdn-redfin.com/photo/90/mbphoto/949/genMid.14123949_0.jpg'],75040
31397021,2114 GLENBROOK MEADOWS DR GARLAND TX 75040,3,2.5,1975,1756,8969,320869,Redfin Estimate,32.9333399,-96.6363204,['https://ssl.cdn-redfin.com/photo/90/mbphoto/285/genMid.10112285_0.jpg'],75040
31397042,706 WORCESTER LN GARLAND TX 75040,3,2.0,1976,2148,7131,329445,Redfin Estimate,32.9332701,-96.6380554,['https://maps.googleapis.com/maps/api/streetview?channel=mb-pdp-publicrecord&location=706+Worcester+Ln%2C+Garland%2C+TX+75040&size=665x441&source=outdoor&client=gme-redfin&signature=ekvDG-KswwgMPK-PqWbKG11gPLE='],75040
31397032,601 WAKEFIELD DR GARLAND TX 75040,3,2.0,1976,1658,8738,273682,Redfin Estimate,32.932894,-96.6367971,['https://ssl.cdn-redfin.com/photo/90/mbphoto/276/genMid.11074276_2.jpg'],75040
31397027,721 WAKEFIELD DR GARLAND TX 75040,3,2.0,1976,1686,7736,316725,Redfin Estimate,32.9327781,-96.6386406,['https://ssl.cdn-redfin.com/photo/90/mbphoto/787/genMid.11586787_2.jpg'],75040
31397029,729 WAKEFIELD DR GARLAND TX 75040,3,2.0,1976,1537,7906,310395,Redfin Estimate,32.9326172,-96.6390341,['https://maps.googleapis.com/maps/api/streetview?channel=mb-pdp-publicrecord&location=729+Wakefield+Dr%2C+Garland%2C+TX+75040&size=665x441&source=outdoor&client=gme-redfin&signature=43GvGqID3wWoUFicOW9ZYo-uM-Q='],75040
31396673,514 WOODCASTLE DR GARLAND TX 75040,3,2.0,1976,1833,7588,316870,Redfin Estimate,32.9340778,-96.6359622,['https://maps.googleapis.com/maps/api/streetview?channel=mb-pdp-publicrecord&location=514+Woodcastle+Dr%2C+Garland%2C+TX+75040&size=665x441&source=outdoor&client=gme-redfin&signature=YPokX9EKHc_Slv4o4EEvixwewo0='],75040
31396679,506 WOODCASTLE DR GARLAND TX 75040,3,2.0,1976,1893,7588,358188,Redfin Estimate,32.9341044,-96.6354613,['https://ssl.cdn-redfin.com/photo/90/mbphoto/495/genMid.14633495_4.jpg'],75040
31396676,502 WOODCASTLE DR GARLAND TX 75040,3,2.0,1976,1663,7588,345173,Redfin Estimate,32.9341132,-96.6352943,['https://ssl.cdn-redfin.com/photo/90/mbphoto/244/genMid.20011244_0.jpg'],75040
31396595,2621 BROOKCREST DR GARLAND TX 75040,4,2.5,1976,2204,8163,355553,Redfin Estimate,32.9449009,-96.6397168,['https://ssl.cdn-redfin.com/photo/90/mbphoto/570/genMid.10052570_0.jpg'],75040
31396607,2605 BROOKCREST DR GARLAND TX 75040,3,2.0,1975,2234,8050,384131,Redfin Estimate,32.9443614,-96.639145,['https://ssl.cdn-redfin.com/photo/90/mbphoto/213/genMid.10376213_0.jpg'],75040
31396844,2401 BROOKCREST DR GARLAND TX 75040,3,2.0,1976,1949,9775,362261,Redfin Estimate,32.9414817,-96.6392645,['https://maps.googleapis.com/maps/api/streetview?channel=mb-pdp-publicrecord&location=2401+Brookcrest+Dr%2C+Garland%2C+TX+75040&size=665x441&source=outdoor&client=gme-redfin&signature=V0s7ETfqjjLShMrkSkNV5ASMv18='],75040
31396789,2414 PARKSIDE DR GARLAND TX 75040,3,2.0,1977,2254,7614,361564,Redfin Estimate,32.9410889,-96.6388635,['https://maps.googleapis.com/maps/api/streetview?channel=mb-pdp-publicrecord&location=2414+Parkside+Dr%2C+Garland%2C+TX+75040&size=665x441&source=outdoor&client=gme-redfin&signature=bpseeBNLxcc4Am9VQqtQIC22qh8='],75040
31371336,2801 CLUB MEADOW DR GARLAND TX 75043,4,3.5,2006,2378,11874,398861,Redfin Estimate,32.8860619,-96.6060173,['https://ssl.cdn-redfin.com/photo/90/mbphoto/788/genMid.11104788_2.jpg'],75043
31371315,2601 COUNTRY CLUB PKWY GARLAND TX 75043,3,2.0,1983,3036,10001,402280,Redfin Estimate,32.8891712,-96.6081662,['https://maps.googleapis.com/maps/api/streetview?channel=mb-pdp-publicrecord&location=2601+Country+Club+Pkwy%2C+Garland%2C+TX+75043&size=665x441&source=outdoor&client=gme-redfin&signature=sPs4lu3VbHVe7kgN-JXs8Ue9d7o='],75043
31371281,2829 COUNTRY CLUB PKWY GARLAND TX 75043,4,3.0,1977,2378,10001,363821,Redfin Estimate,32.8855559,-96.6039728,['https://maps.googleapis.com/maps/api/streetview?channel=mb-pdp-publicrecord&location=2829+Country+Club+Pkwy%2C+Garland%2C+TX+75043&size=665x441&source=outdoor&client=gme-redfin&signature=rhRh9-3Y3_LvmnkRaRP2hSwTdzQ='],75043
31371260,1601 FAIRWAY CIR GARLAND TX 75043,4,2.5,1978,2745,12149,398848,Redfin Estimate,32.8860471,-96.603806,['https://maps.googleapis.com/maps/api/streetview?channel=mb-pdp-publicrecord&location=1601+Fairway+Cir%2C+Garland%2C+TX+75043&size=665x441&source=outdoor&client=gme-redfin&signature=rmtYcdo_-6wYv4akNq-88PLJomg='],75043
31371161,1609 CLUB CIR GARLAND TX 75043,4,3.0,1977,2493,17999,405279,Redfin Estimate,32.8888877,-96.6064763,['https://maps.googleapis.com/maps/api/streetview?channel=mb-pdp-publicrecord&location=1609+Club+Cir%2C+Garland%2C+TX+75043&size=665x441&source=outdoor&client=gme-redfin&signature=D12uwkWL0gniajbSkDo__YJhu58='],75043
31371215,2605 COUNTRY VALLEY RD GARLAND TX 75043,3,2.5,1983,2646,16440,429299,Redfin Estimate,32.8876855,-96.6093137,['https://maps.googleapis.com/maps/api/streetview?channel=mb-pdp-publicrecord&location=2605+Country+Valley+Rd%2C+Garland%2C+TX+75043&size=665x441&source=outdoor&client=gme-redfin&signature=Dm-UC2_jSTA7LlEnCwLJJFbl-G8='],75043
32203773,3302 ENCLAVE CT GARLAND TX 75040,4,2.5,2002,2892,9714,464460,Redfin Estimate,32.9466637,-96.6387479,['https://maps.googleapis.com/maps/api/streetview?channel=mb-pdp-publicrecord&location=3302+Enclave+Ct%2C+Garland%2C+TX+75040&size=665x441&source=outdoor&client=gme-redfin&signature=lDUkOq1aYMNhSyTIQs_MPDXRQr0='],75040
32203785,618 CRESTED COVE DR GARLAND TX 75040,4,2.5,2002,2581,10607,428524,Redfin Estimate,32.9482274,-96.6364328,['https://maps.googleapis.com/maps/api/streetview?channel=mb-ldp-publicrecord&location=618+Crested+Cove+Dr%2C+Garland%2C+TX+75040&size=665x441&source=outdoor&client=gme-redfin&signature=B9D1Bd2PZOBdfzVtoxzmyK5h7_s='],75040
31397059,722 WAKEFIELD DR GARLAND TX 75040,3,2.0,1977,1804,8516,334095,Redfin Estimate,32.9323445,-96.6386136,['https://ssl.cdn-redfin.com/photo/90/mbphoto/984/genMid.11704984_2.jpg'],75040
31397080,2002 GLENWICK LN GARLAND TX 75040,3,2.0,1976,1552,8969,286405,Redfin Estimate,32.9310999,-96.6373356,['https://maps.googleapis.com/maps/api/streetview?channel=mb-pdp-publicrecord&location=2002+Glenwick+Ln%2C+Garland%2C+TX+75040&size=665x441&source=outdoor&client=gme-redfin&signature=Lyyr733UtLGcBNSPqEaIWH6Nh8Q='],75040
31397076,2018 GLENWICK LN GARLAND TX 75040,3,2.0,1977,1688,7131,322277,Redfin Estimate,32.9317925,-96.6373189,['https://maps.googleapis.com/maps/api/streetview?channel=mb-pdp-publicrecord&location=2018+Glenwick+Ln%2C+Garland%2C+TX+75040&size=665x441&source=outdoor&client=gme-redfin&signature=iGPW2IEgXJvdyj-QcCFz1cW6UEo='],75040
31397072,2033 GLENBROOK MEADOWS DR GARLAND TX 75040,3,2.0,1975,1737,10694,329541,Redfin Estimate,32.932485,-96.6368608,['https://maps.googleapis.com/maps/api/streetview?channel=mb-pdp-publicrecord&location=2033+Glenbrook+Meadows+Dr%2C+Garland%2C+TX+75040&size=665x441&source=outdoor&client=gme-redfin&signature=v0vOMONqPwQQNMZ-sTdKsRGnTQU='],75040
31397003,2021 GLENCREST LN GARLAND TX 75040,3,2.0,1978,1692,7131,295598,Redfin Estimate,32.9319635,-96.6359044,['https://ssl.cdn-redfin.com/photo/90/mbphoto/959/genMid.20167959_1.jpg'],75040
31397006,2001 GLENCREST LN GARLAND TX 75040,3,2.0,1978,1692,7131,316878,Redfin Estimate,32.9311104,-96.6358829,['https://maps.googleapis.com/maps/api/streetview?channel=mb-pdp-publicrecord&location=2001+Glencrest+Ln%2C+Garland%2C+TX+75040&size=665x441&source=outdoor&client=gme-redfin&signature=jlBMRLj-MYq7E0YsIaOdfR7hV7Y='],75040
31396994,2014 GLENCREST LN GARLAND TX 75040,3,2.0,1974,1551,7131,289059,Redfin Estimate,32.9315975,-96.6354022,['https://ssl.cdn-redfin.com/photo/90/mbphoto/184/genMid.11198184_3.jpg'],75040
31397052,730 WORCESTER LN GARLAND TX 75040,3,2.0,1976,1584,9557,343818,Redfin Estimate,32.9329363,-96.6393019,['https://ssl.cdn-redfin.com/photo/90/mbphoto/229/genMid.20459229_0.jpg'],75040
31397035,605 WAKEFIELD DR GARLAND TX 75040,3,2.0,1977,1719,7131,300814,Redfin Estimate,32.932958,-96.6370698,['https://ssl.cdn-redfin.com/photo/90/mbphoto/703/genMid.20106703_0.jpg'],75040
31397024,717 WAKEFIELD DR GARLAND TX 75040,3,2.0,1976,1718,7379,329203,Redfin Estimate,32.9328141,-96.6384713,['https://maps.googleapis.com/maps/api/streetview?channel=mb-pdp-publicrecord&location=717+Wakefield+Dr%2C+Garland%2C+TX+75040&size=665x441&source=outdoor&client=gme-redfin&signature=aSd5F4AE3GBTdbe5xinJNfL3v_E='],75040
31396659,713 WOODCASTLE DR GARLAND TX 75040,3,2.0,1972,1688,7131,330107,Redfin Estimate,32.9344844,-96.6384891,['https://maps.googleapis.com/maps/api/streetview?channel=mb-pdp-publicrecord&location=713+Woodcastle+Dr%2C+Garland%2C+TX+75040&size=665x441&source=outdoor&client=gme-redfin&signature=YHuQ_IybXm7PVzlWhwttDEvqt5M='],75040
31396668,517 WORCESTER LN GARLAND TX 75040,3,2.0,1975,1346,7244,332378,Redfin Estimate,32.9337183,-96.6361292,['https://ssl.cdn-redfin.com/photo/90/mbphoto/074/genMid.20210074_0.jpg'],75040
31396645,1006 FAIR OAKS DR GARLAND TX 75040,3,2.0,1976,1794,8120,306072,Redfin Estimate,32.9427728,-96.6415213,['https://maps.googleapis.com/maps/api/streetview?channel=mb-pdp-publicrecord&location=1006+Fair+Oaks+Dr%2C+Garland%2C+TX+75040&size=665x441&source=outdoor&client=gme-redfin&signature=eSTQa02KYj7NUtXIUYfq7lgwYkU='],75040
31396593,2613 BROOKCREST DR GARLAND TX 75040,3,2.0,1976,1971,8050,349716,Redfin Estimate,32.9446082,-96.6394925,['https://maps.googleapis.com/maps/api/streetview?channel=mb-pdp-publicrecord&location=2613+Brookcrest+Dr%2C+Garland%2C+TX+75040&size=665x441&source=outdoor&client=gme-redfin&signature=RHMFjXafWJMke4vGAx9gX0OFUys='],75040
31396686,909 FAIR OAKS DR GARLAND TX 75040,3,2.0,1977,1792,8050,324956,Redfin Estimate,32.9437135,-96.6410399,['https://ssl.cdn-redfin.com/photo/90/mbphoto/136/genMid.10968136_2.jpg'],75040
31396631,1005 FAIR OAKS DR GARLAND TX 75040,4,3.0,1977,2441,8120,431611,Redfin Estimate,32.9430765,-96.6418694,['https://ssl.cdn-redfin.com/photo/90/mbphoto/457/genMid.14495457_0.jpg'],75040
32224073,106 WILDHAVEN DR GARLAND TX 75043,3,2.0,2001,1459,7784,270128,Redfin Estimate,32.8587448,-96.6168712,['https://ssl.cdn-redfin.com/photo/90/mbphoto/708/genMid.11286708_2.jpg'],75043
32224099,4521 WATERBIRD LN GARLAND TX 75043,3,2.0,2001,1485,7579,329329,Redfin Estimate,32.857907,-96.6159905,['https://ssl.cdn-redfin.com/photo/90/mbphoto/329/genMid.11544329_2.jpg'],75043
32224104,214 DRAKE LN GARLAND TX 75043,3,2.0,2002,1780,7100,306276,Redfin Estimate,32.8583066,-96.6142377,['https://maps.googleapis.com/maps/api/streetview?channel=mb-ldp-publicrecord&location=214+Drake+Ln%2C+Garland%2C+TX+75043&size=665x441&source=outdoor&client=gme-redfin&signature=zkhbdsLK6z_1D8YdfZ4RJodckV0='],75043
32224025,121 DRAKE LN GARLAND TX 75043,3,2.0,2001,1779,7401,332795,Redfin Estimate,32.8580388,-96.6152721,['https://maps.googleapis.com/maps/api/streetview?channel=mb-pdp-publicrecord&location=121+Drake+Ln%2C+Garland%2C+TX+75043&size=665x441&source=outdoor&client=gme-redfin&signature=Xap2LGnpZ-nVWn73-AQRm5jEesA='],75043
32224028,205 DRAKE LN GARLAND TX 75043,4,2.0,2002,2086,7013,350708,Redfin Estimate,32.8584102,-96.6148579,['https://maps.googleapis.com/maps/api/streetview?channel=mb-pdp-publicrecord&location=205+Drake+Ln%2C+Garland%2C+TX+75043&size=665x441&source=outdoor&client=gme-redfin&signature=hRuN3Q1etPJQzqWHtqkpH6Jq8vs='],75043
31405191,5513 KEY BEND  GARLAND TX 75043,3,2.0,1983,1180,4500,244058,Redfin Estimate,32.8534259,-96.5500233,['https://maps.googleapis.com/maps/api/streetview?channel=mb-pdp-publicrecord&location=5513+Key+Bnd%2C+Garland%2C+TX+75043&size=665x441&source=outdoor&client=gme-redfin&signature=cRYQQr7TQeDTOTo7Lj2jPjFhEXw='],75043
31405440,5505 KEY BEND  GARLAND TX 75043,3,2.0,1983,1334,4500,245650,Redfin Estimate,32.8536592,-96.5500423,['https://ssl.cdn-redfin.com/photo/90/mbphoto/916/genMid.11424916_2.jpg'],75043
31405436,5409 KEY BEND  GARLAND TX 75043,2,1.5,1983,1150,4299,233752,Redfin Estimate,32.8539985,-96.5510808,['https://ssl.cdn-redfin.com/photo/90/mbphoto/897/genMid.13694897_2.jpg'],75043
31405407,5206 WATERVIEW LN GARLAND TX 75043,3,2.0,1983,1180,4299,228762,Redfin Estimate,32.8535168,-96.5507905,['https://ssl.cdn-redfin.com/photo/90/mbphoto/036/genMid.13149036_0.jpg'],75043
31406335,901 HIGHWOOD PL GARLAND TX 75041,3,1.0,1983,1112,5258,234943,Redfin Estimate,32.8929234,-96.6205394,['https://maps.googleapis.com/maps/api/streetview?channel=mb-pdp-publicrecord&location=901+Highwood+Pl%2C+Garland%2C+TX+75041&size=665x441&source=outdoor&client=gme-redfin&signature=kllUjOHUPwqQzR5_WJP_X05p_Dw='],75041
31406345,2113 HIGHWOOD DR GARLAND TX 75041,3,2.0,1983,1280,11700,268469,Redfin Estimate,32.8921979,-96.6202157,['https://maps.googleapis.com/maps/api/streetview?channel=mb-pdp-publicrecord&location=2113+Highwood+Dr%2C+Garland%2C+TX+75041&size=665x441&source=outdoor&client=gme-redfin&signature=84MDgL-aY01dwjiav_v3LEpoxG0='],75041
31390032,4342 FOREST POINT DR GARLAND TX 75043,4,2.0,1999,1429,4822,266567,Redfin Estimate,32.8603747,-96.6174923,['https://maps.googleapis.com/maps/api/streetview?channel=mb-pdp-publicrecord&location=4342+Forest+Point+Dr%2C+Garland%2C+TX+75043&size=665x441&source=outdoor&client=gme-redfin&signature=BYYQM_xwBuO27ijE22qDaHnFlOs='],75043
31399508,2710 PRINCEWOOD DR GARLAND TX 75040,3,2.0,1986,1740,7719,331488,Redfin Estimate,32.9457744,-96.6257147,['https://ssl.cdn-redfin.com/photo/90/mbphoto/555/genMid.14108555_4.jpg'],75040
31399548,2814 PRINCEWOOD DR GARLAND TX 75040,3,2.0,1986,2054,8037,368439,Redfin Estimate,32.9470324,-96.6251304,['https://ssl.cdn-redfin.com/photo/90/mbphoto/850/genMid.11138850_3.jpg'],75040
31399581,3114 ANDREA LN GARLAND TX 75040,4,2.0,1988,1912,7562,393137,Redfin Estimate,32.9476451,-96.6218891,['https://ssl.cdn-redfin.com/photo/90/mbphoto/020/genMid.13648020_4.jpg'],75040
31399139,630 ECHO DR GARLAND TX 75040,3,2.0,1987,1798,7658,377672,Redfin Estimate,32.9442088,-96.6238365,['https://ssl.cdn-redfin.com/photo/90/mbphoto/236/genMid.20333236_1.jpg'],75040
31396705,709 WORCESTER LN GARLAND TX 75040,3,2.5,1976,1690,7475,306765,Redfin Estimate,32.9336777,-96.6382869,['https://maps.googleapis.com/maps/api/streetview?channel=mb-pdp-publicrecord&location=709+Worcester+Ln%2C+Garland%2C+TX+75040&size=665x441&source=outdoor&client=gme-redfin&signature=iQwuezW0C6lMpTAtDLveLyz6V-s='],75040
31396712,605 WOODCASTLE DR GARLAND TX 75040,3,2.0,1962,1526,7131,315532,Redfin Estimate,32.9345205,-96.6370172,['https://ssl.cdn-redfin.com/photo/90/mbphoto/753/genMid.10026753_0.jpg'],75040
31396717,705 WOODCASTLE DR GARLAND TX 75040,3,2.0,1962,1690,7131,302886,Redfin Estimate,32.9345015,-96.6380757,['https://maps.googleapis.com/maps/api/streetview?channel=mb-pdp-publicrecord&location=705+Woodcastle+Dr%2C+Garland%2C+TX+75040&size=665x441&source=outdoor&client=gme-redfin&signature=j8Yk-XlMCyKO0Itf14CZy7wZ_XY='],75040
31396660,513 WOODCASTLE DR GARLAND TX 75040,4,2.0,1977,1893,7588,331212,Redfin Estimate,32.9345139,-96.6358821,['https://maps.googleapis.com/maps/api/streetview?channel=mb-pdp-publicrecord&location=513+Woodcastle+Dr%2C+Garland%2C+TX+75040&size=665x441&source=outdoor&client=gme-redfin&signature=MKWe_Oz9At2rKGS0pbxebNdy__8='],75040
31396670,509 WORCESTER LN GARLAND TX 75040,3,2.0,1975,1240,7244,278021,Redfin Estimate,32.9337487,-96.6357952,['https://maps.googleapis.com/maps/api/streetview?channel=mb-pdp-publicrecord&location=509+Worcester+Ln%2C+Garland%2C+TX+75040&size=665x441&source=outdoor&client=gme-redfin&signature=sVhPRw149_gFOVtjyXoriX_4OCE='],75040
31396669,513 WORCESTER LN GARLAND TX 75040,3,2.0,1975,1452,7244,302078,Redfin Estimate,32.933714,-96.6359438,['https://maps.googleapis.com/maps/api/streetview?channel=mb-pdp-publicrecord&location=513+Worcester+Ln%2C+Garland%2C+TX+75040&size=665x441&source=outdoor&client=gme-redfin&signature=uwxl_DPsc9iCV_yDL0gOGt0AVjg='],75040
31396594,2617 BROOKCREST DR GARLAND TX 75040,3,2.5,1976,1826,8050,353470,Redfin Estimate,32.9447699,-96.639636,['https://ssl.cdn-redfin.com/photo/90/mbphoto/038/genMid.14530038_0.jpg'],75040
31399149,2817 ANDREA LN GARLAND TX 75040,3,2.0,1987,1723,7845,319604,Redfin Estimate,32.9449785,-96.6225427,['https://maps.googleapis.com/maps/api/streetview?channel=mb-pdp-publicrecord&location=2817+Andrea+Ln%2C+Garland%2C+TX+75040&size=665x441&source=outdoor&client=gme-redfin&signature=naQrNP799S9gPz8kwk6o79mM8rY='],75040
31399152,2805 ANDREA LN GARLAND TX 75040,3,2.0,1987,1798,7810,359428,Redfin Estimate,32.9447409,-96.6226386,['https://maps.googleapis.com/maps/api/streetview?channel=mb-pdp-publicrecord&location=2805+Andrea+Ln%2C+Garland%2C+TX+75040&size=665x441&source=outdoor&client=gme-redfin&signature=cyj_23rbEBAeFvApUwoezI8gJZw='],75040
31399142,2814 BARON DR GARLAND TX 75040,3,2.0,1987,1835,7897,337436,Redfin Estimate,32.9449033,-96.6230336,['https://ssl.cdn-redfin.com/photo/90/mbphoto/731/genMid.10035731_0.jpg'],75040
31399104,3005 BARON DR GARLAND TX 75040,4,2.5,1987,2150,7701,355189,Redfin Estimate,32.9465711,-96.6230852,['https://maps.googleapis.com/maps/api/streetview?channel=mb-pdp-publicrecord&location=3005+Baron+Dr%2C+Garland%2C+TX+75040&size=665x441&source=outdoor&client=gme-redfin&signature=wxjhTwof7eCvrbHXRkZP7mIea_Y='],75040
31399097,2817 BARON DR GARLAND TX 75040,3,2.0,1986,1767,7897,326151,Redfin Estimate,32.9451928,-96.6234609,['https://ssl.cdn-redfin.com/photo/90/mbphoto/598/genMid.11534598_9.jpg'],75040
31399199,605 BUTTERCUP CIR GARLAND TX 75040,4,2.5,1987,2109,9849,359453,Redfin Estimate,32.9470288,-96.6235443,['https://maps.googleapis.com/maps/api/streetview?channel=mb-pdp-publicrecord&location=605+Buttercup+Cir%2C+Garland%2C+TX+75040&size=665x441&source=outdoor&client=gme-redfin&signature=dfnARNIGDIaPvvfGPy6F_KWF78k='],75040
31399205,3202 ANDREA LN GARLAND TX 75040,3,2.0,1988,1747,9304,324014,Redfin Estimate,32.9481774,-96.6225427,['https://ssl.cdn-redfin.com/photo/90/mbphoto/749/genMid.13727749_0.jpg'],75040
31399203,3110 PRINCEWOOD DR GARLAND TX 75040,4,2.0,1986,1812,7941,319812,Redfin Estimate,32.9489585,-96.623242,['https://ssl.cdn-redfin.com/photo/90/mbphoto/016/genMid.10980016_2.jpg'],75040
30789985,2906 KNIGHTSBRIDGE LN GARLAND TX 75043,4,3.5,2009,3694,10001,586085,Redfin Estimate,32.8894784,-96.6027629,['https://ssl.cdn-redfin.com/photo/90/mbphoto/691/genMid.20138691_7.jpg'],75043
31366335,13 WINDING CREEK TRL GARLAND TX 75043,3,3.0,1987,3311,9178,466279,Redfin Estimate,32.8778249,-96.598333,['https://maps.googleapis.com/maps/api/streetview?channel=mb-pdp-publicrecord&location=13+Winding+Creek+Trl%2C+Garland%2C+TX+75043&size=665x441&source=outdoor&client=gme-redfin&signature=KxXM2phjJYd1coZ4zSmIbdLlpZY='],75043
31390026,4330 FOREST POINT DR GARLAND TX 75043,3,2.0,1997,1429,4474,369653,Redfin Estimate,32.861022,-96.6177979,['https://maps.googleapis.com/maps/api/streetview?channel=mb-pdp-publicrecord&location=4330+Forest+Point+Dr%2C+Garland%2C+TX+75043&size=665x441&source=outdoor&client=gme-redfin&signature=LzDIP2AF2TJZmueOXvhL0rkTDfo='],75043
31390011,4304 FOREST POINT DR GARLAND TX 75043,2,2.0,1986,1232,4491,484322,Redfin Estimate,32.8623676,-96.6181888,['https://ssl.cdn-redfin.com/photo/90/mbphoto/661/genMid.20008661_0.jpg'],75043
31399521,2809 PRINCEWOOD DR GARLAND TX 75040,3,2.0,1986,1731,17428,292222,Redfin Estimate,32.9470474,-96.625673,['https://ssl.cdn-redfin.com/photo/90/mbphoto/934/genMid.14116934_0.jpg'],75040
31399505,2913 PRINCEWOOD DR GARLAND TX 75040,3,2.5,1986,1969,10720,341352,Redfin Estimate,32.947946,-96.6252556,['https://maps.googleapis.com/maps/api/streetview?channel=mb-pdp-publicrecord&location=2913+Princewood+Dr%2C+Garland%2C+TX+75040&size=665x441&source=outdoor&client=gme-redfin&signature=Yz5m6LpKrgxRqKqcu_TpyaZuR9o='],75040
31399501,3005 PRINCEWOOD DR GARLAND TX 75040,3,2.5,1986,2394,9444,374216,Redfin Estimate,32.9485094,-96.624546,['https://ssl.cdn-redfin.com/photo/90/mbphoto/383/genMid.11921383_1.jpg'],75040
31399512,3105 PRINCEWOOD DR GARLAND TX 75040,3,2.0,1986,1772,9662,300440,Redfin Estimate,32.9491679,-96.6237488,['https://ssl.cdn-redfin.com/photo/90/mbphoto/139/genMid.14091139_1.jpg'],75040
31399576,3009 HAMPSHIRE DR GARLAND TX 75040,3,2.5,1986,2394,8233,385173,Redfin Estimate,32.9478614,-96.6235443,['https://maps.googleapis.com/maps/api/streetview?channel=mb-pdp-publicrecord&location=3009+Hampshire+Dr%2C+Garland%2C+TX+75040&size=665x441&source=outdoor&client=gme-redfin&signature=01dAOQwOqkQ3pJtKiAKs5XoY7B0='],75040
31399584,3102 ANDREA LN GARLAND TX 75040,3,2.0,1992,1504,6961,332698,Redfin Estimate,32.9473125,-96.6214993,['https://maps.googleapis.com/maps/api/streetview?channel=mb-pdp-publicrecord&location=3102+Andrea+Ln%2C+Garland%2C+TX+75040&size=665x441&source=outdoor&client=gme-redfin&signature=iDHyvqLEqzRbNSVEmF8h82cmo5o='],75040
31399588,3018 ANDREA LN GARLAND TX 75040,3,2.0,1994,1530,6904,302558,Redfin Estimate,32.9466635,-96.621514,['https://ssl.cdn-redfin.com/photo/90/mbphoto/593/genMid.14293593_2.jpg'],75040
31399573,2714 ANDREA LN GARLAND TX 75040,3,2.5,1993,1790,7004,353881,Redfin Estimate,32.9440229,-96.6223604,['https://ssl.cdn-redfin.com/photo/90/mbphoto/563/genMid.14749563_3.jpg'],75040
31399574,2702 ANDREA LN GARLAND TX 75040,3,2.0,1987,1621,11103,300954,Redfin Estimate,32.9435368,-96.6224592,['https://ssl.cdn-redfin.com/photo/90/mbphoto/025/genMid.10362025_0.jpg'],75040
31399127,614 ECHO DR GARLAND TX 75040,3,2.0,1986,1740,7166,334576,Redfin Estimate,32.9447452,-96.6245054,['https://maps.googleapis.com/maps/api/streetview?channel=mb-pdp-publicrecord&location=614+Echo+Dr%2C+Garland%2C+TX+75040&size=665x441&source=outdoor&client=gme-redfin&signature=TMfdV6lBvNxWxCVcM4AVQetGJ3s='],75040
31399150,2813 ANDREA LN GARLAND TX 75040,3,2.0,1987,1752,7976,328461,Redfin Estimate,32.9447952,-96.6226261,['https://maps.googleapis.com/maps/api/streetview?channel=mb-pdp-publicrecord&location=2813+Andrea+Ln%2C+Garland%2C+TX+75040&size=665x441&source=outdoor&client=gme-redfin&signature=xJ2XTt1lqii29d7km79DOfstPNY='],75040
31399141,2810 BARON DR GARLAND TX 75040,3,2.0,1987,1752,17932,352303,Redfin Estimate,32.9446868,-96.6230852,['https://maps.googleapis.com/maps/api/streetview?channel=mb-pdp-publicrecord&location=32.9446868%2C-96.6230852&size=665x441&source=outdoor&client=gme-redfin&signature=IV8Isa8YIRgQTInWOsjSx8kGOQ8='],75040
31399101,3121 ANDREA LN GARLAND TX 75040,4,2.0,1987,1752,9008,318527,Redfin Estimate,32.9475771,-96.6225518,['https://ssl.cdn-redfin.com/photo/90/mbphoto/315/genMid.13859315_C.jpg'],75040
31393707,815 MAGNOLIA DR GARLAND TX 75040,2,1.0,1951,1060,8398,213820,Redfin Estimate,32.9179479,-96.6412105,['https://maps.googleapis.com/maps/api/streetview?channel=mb-pdp-publicrecord&location=815+Magnolia+Dr%2C+Garland%2C+TX+75040&size=665x441&source=outdoor&client=gme-redfin&signature=10bNm2woDRPmgV6qKJdeexnwmJA='],75040
31393728,818 MAPLE DR GARLAND TX 75040,2,1.0,1957,932,8368,226888,Redfin Estimate,32.9184905,-96.6416502,['https://maps.googleapis.com/maps/api/streetview?channel=mb-pdp-publicrecord&location=818+Maple+Dr%2C+Garland%2C+TX+75040&size=665x441&source=outdoor&client=gme-redfin&signature=I0LgWz-75GQ2gRMBuECH3nK9ZLw='],75040
31393687,802 MAPLE DR GARLAND TX 75040,2,1.0,1957,1080,8172,217982,Redfin Estimate,32.9184536,-96.6400742,['https://maps.googleapis.com/maps/api/streetview?channel=mb-pdp-publicrecord&location=802+Maple+Dr%2C+Garland%2C+TX+75040&size=665x441&source=outdoor&client=gme-redfin&signature=zUUmtU-vtFYGaymzgQyIhyU3bmg='],75040
31393674,803 MAPLE DR GARLAND TX 75040,3,1.0,1957,1328,8398,242621,Redfin Estimate,32.9188775,-96.6400712,['https://maps.googleapis.com/maps/api/streetview?channel=mb-pdp-publicrecord&location=803+Maple+Dr%2C+Garland%2C+TX+75040&size=665x441&source=outdoor&client=gme-redfin&signature=Lc8RxMZcAIwzdN45hrMFxhrUV3s='],75040
31393703,827 MAPLE DR GARLAND TX 75040,2,1.5,1957,1028,8398,216264,Redfin Estimate,32.9188555,-96.6424121,['https://ssl.cdn-redfin.com/photo/90/mbphoto/686/genMid.10391686_0.jpg'],75040
31393621,833 MIMOSA DR GARLAND TX 75040,2,1.0,1949,904,8398,205280,Redfin Estimate,32.9197439,-96.64142,['https://maps.googleapis.com/maps/api/streetview?channel=mb-pdp-publicrecord&location=833+Mimosa+Dr%2C+Garland%2C+TX+75040&size=665x441&source=outdoor&client=gme-redfin&signature=cVfJ3w3XYRvCt0M35lv-jEzaYG8='],75040
31393620,837 MIMOSA DR GARLAND TX 75040,2,3.0,1957,1985,8398,281627,Redfin Estimate,32.9198158,-96.6416606,['https://ssl.cdn-redfin.com/photo/90/mbphoto/998/genMid.10332998_0.jpg'],75040
31393614,860 NASH ST GARLAND TX 75040,2,1.0,1949,800,8398,204354,Redfin Estimate,32.9203027,-96.6428087,['https://maps.googleapis.com/maps/api/streetview?channel=mb-pdp-publicrecord&location=860+Nash+St%2C+Garland%2C+TX+75040&size=665x441&source=outdoor&client=gme-redfin&signature=MQx436gwlyEh8xORLmU3ffhlEZk='],75040
31405379,1830 HIGHBROOK CT GARLAND TX 75044,3,2.5,1973,1408,2474,281482,Redfin Estimate,32.9462966,-96.655712,['https://ssl.cdn-redfin.com/photo/90/mbphoto/022/genMid.14203022_0.jpg'],75044
31403592,1213 HIGH MESA DR GARLAND TX 75041,3,2.0,1986,1292,8076,271460,Redfin Estimate,32.8880259,-96.6144881,['https://maps.googleapis.com/maps/api/streetview?channel=mb-pdp-publicrecord&location=1213+High+Mesa+Dr%2C+Garland%2C+TX+75041&size=665x441&source=outdoor&client=gme-redfin&signature=LrZdIKfGT6JKQoY5r-bHtpuAT6o='],75041
31405163,5509 KNOLLRIDGE DR GARLAND TX 75043,2,1.0,1982,1136,3999,213521,Redfin Estimate,32.8552372,-96.5498731,['https://maps.googleapis.com/maps/api/streetview?channel=mb-pdp-publicrecord&location=5509+Knollridge+Dr%2C+Garland%2C+TX+75043&size=665x441&source=outdoor&client=gme-redfin&signature=ONH-ieISOo2Va6rZ7QuoQsoAeuc='],75043
31405164,5513 KNOLLRIDGE DR GARLAND TX 75043,3,2.0,1982,1257,3999,206463,Redfin Estimate,32.8551968,-96.5497454,['https://ssl.cdn-redfin.com/photo/90/mbphoto/465/genMid.11772465_3.jpg'],75043
31405159,5502 KNOLLRIDGE DR GARLAND TX 75043,2,1.5,1983,1132,4700,221774,Redfin Estimate,32.8547981,-96.550005,['https://maps.googleapis.com/maps/api/streetview?channel=mb-pdp-publicrecord&location=32.8547981%2C-96.550005&size=665x441&source=outdoor&client=gme-redfin&signature=DesaWlH9qngU1FMgAsgEcZbF2qY='],75043
31405177,5114 SHOREGATE DR GARLAND TX 75043,3,2.0,1982,1337,4038,248364,Redfin Estimate,32.8549182,-96.549073,['https://maps.googleapis.com/maps/api/streetview?channel=mb-pdp-publicrecord&location=5114+Shoregate+Dr%2C+Garland%2C+TX+75043&size=665x441&source=outdoor&client=gme-redfin&signature=-PGgHlG772UDTm5lS7N2qu0HKE8='],75043
31405193,5205 SHOREGATE DR GARLAND TX 75043,3,2.0,1982,1334,4648,289188,Redfin Estimate,32.853677,-96.549769,['https://ssl.cdn-redfin.com/photo/90/mbphoto/086/genMid.20377086_0.jpg'],75043
31405195,5213 SHOREGATE DR GARLAND TX 75043,2,2.0,1982,1180,4500,215182,Redfin Estimate,32.8533932,-96.549759,['https://maps.googleapis.com/maps/api/streetview?channel=mb-pdp-publicrecord&location=5213+Shoregate+Dr%2C+Garland%2C+TX+75043&size=665x441&source=outdoor&client=gme-redfin&signature=bxg0tjWhDs8Fr787BP7rVjrgDMY='],75043
31405189,5221 SHOREGATE DR GARLAND TX 75043,3,2.0,1983,1340,5101,247140,Redfin Estimate,32.8531453,-96.5497901,['https://ssl.cdn-redfin.com/photo/90/mbphoto/544/genMid.14501544_0.jpg'],75043
31405447,5126 LAKERIDGE CT GARLAND TX 75043,3,2.0,1981,1334,4408,257787,Redfin Estimate,32.8542489,-96.5512018,['https://ssl.cdn-redfin.com/photo/90/mbphoto/471/genMid.13541471_3.jpg'],75043
31405128,5218 SHOREGATE DR GARLAND TX 75043,2,3.0,2003,1514,3284,248950,Redfin Estimate,32.8530361,-96.5493207,['https://maps.googleapis.com/maps/api/streetview?channel=mb-pdp-publicrecord&location=5218+Shoregate+Dr%2C+Garland%2C+TX+75043&size=665x441&source=outdoor&client=gme-redfin&signature=i-BG6CAK1vInjRJLswQgEppu94I='],75043
31405146,5410 SANDPIPER LN GARLAND TX 75043,3,2.0,1981,1327,4752,256546,Redfin Estimate,32.8555636,-96.5510305,['https://maps.googleapis.com/maps/api/streetview?channel=mb-pdp-publicrecord&location=5410+Sandpiper+Ln%2C+Garland%2C+TX+75043&size=665x441&source=outdoor&client=gme-redfin&signature=hIhqHHJwKKInNbwUtKtiiJwr2kk='],75043
31405142,5405 KNOLLRIDGE DR GARLAND TX 75043,2,1.0,1982,1123,4591,228993,Redfin Estimate,32.8553091,-96.5511968,['https://ssl.cdn-redfin.com/photo/90/mbphoto/653/genMid.11055653_2.jpg'],75043
31405141,5409 KNOLLRIDGE DR GARLAND TX 75043,3,2.0,1982,1320,5105,266538,Redfin Estimate,32.8553138,-96.5510472,['https://ssl.cdn-redfin.com/photo/90/mbphoto/644/genMid.14384644_0.jpg'],75043
31405168,5102 SHOREGATE DR GARLAND TX 75043,3,2.0,1982,1123,4099,209879,Redfin Estimate,32.8552865,-96.5491091,['https://ssl.cdn-redfin.com/photo/90/mbphoto/681/genMid.11118681_3.jpg'],75043
31405458,5113 SHOREGATE SQUARE  GARLAND TX 75043,3,2.0,1981,1334,4500,251842,Redfin Estimate,32.8544669,-96.5503653,['https://maps.googleapis.com/maps/api/streetview?channel=mb-pdp-publicrecord&location=5113+Shoregate+Sq%2C+Garland%2C+TX+75043&size=665x441&source=outdoor&client=gme-redfin&signature=EoUktdtMLvmPKTIAJ9FXC-BqzVc='],75043
31405451,5410 KNOLLRIDGE DR GARLAND TX 75043,2,1.5,1983,1150,4430,237724,Redfin Estimate,32.8549051,-96.5511295,['https://maps.googleapis.com/maps/api/streetview?channel=mb-pdp-publicrecord&location=5410+Knollridge+Dr%2C+Garland%2C+TX+75043&size=665x441&source=outdoor&client=gme-redfin&signature=-8g7FZsw4zHqBEKgftxO7HtPF84='],75043
31405462,5213 WATERVIEW LN GARLAND TX 75043,3,2.0,1982,1334,5593,253958,Redfin Estimate,32.8532845,-96.5512839,['https://maps.googleapis.com/maps/api/streetview?channel=mb-pdp-publicrecord&location=5213+Waterview+Ln%2C+Garland%2C+TX+75043&size=665x441&source=outdoor&client=gme-redfin&signature=XlxLaU5l3_A13ZIv_Yn1xRzepSg='],75043
31395527,2305 ROYAL OAKS CIR GARLAND TX 75040,3,2.0,1974,1650,15072,350948,Redfin Estimate,32.9358351,-96.6379451,['https://maps.googleapis.com/maps/api/streetview?channel=mb-pdp-publicrecord&location=2305+Royal+Oaks+Cir%2C+Garland%2C+TX+75040&size=665x441&source=outdoor&client=gme-redfin&signature=qtd-QXoU7ycURNMTCNrfhO8jdBY='],75040
31395516,2321 GLENBROOK MEADOWS DR GARLAND TX 75040,3,2.0,1975,2159,7475,345625,Redfin Estimate,32.9362203,-96.6368806,['https://maps.googleapis.com/maps/api/streetview?channel=mb-pdp-publicrecord&location=2321+Glenbrook+Meadows+Dr%2C+Garland%2C+TX+75040&size=665x441&source=outdoor&client=gme-redfin&signature=WKUFiWzqXu-OBjMHwSSkZJaOSGo='],75040
31395512,601 BROOKFIELD DR GARLAND TX 75040,3,2.0,1976,1897,8625,358942,Redfin Estimate,32.9353378,-96.6367994,['https://ssl.cdn-redfin.com/photo/90/mbphoto/531/genMid.10709531_0.jpg'],75040
31395536,610 KINGSBRIDGE DR GARLAND TX 75040,4,3.0,1974,1760,10585,350271,Redfin Estimate,32.9376213,-96.6373189,['https://ssl.cdn-redfin.com/photo/90/mbphoto/423/genMid.11773423_2.jpg'],75040
31395543,613 ROYAL OAKS DR GARLAND TX 75040,3,2.0,1975,1751,7131,340745,Redfin Estimate,32.9371564,-96.6375588,['https://maps.googleapis.com/maps/api/streetview?channel=mb-pdp-publicrecord&location=613+Royal+Oaks+Dr%2C+Garland%2C+TX+75040&size=665x441&source=outdoor&client=gme-redfin&signature=esmhOPvrRLQ_I54z27icuc69JwM='],75040
31395544,617 ROYAL OAKS DR GARLAND TX 75040,3,2.0,1976,2061,7131,363892,Redfin Estimate,32.9371348,-96.6377197,['https://ssl.cdn-redfin.com/photo/90/mbphoto/764/genMid.11398764_3.jpg'],75040
31395546,705 ROYAL OAKS DR GARLAND TX 75040,3,2.0,1975,1682,7131,309917,Redfin Estimate,32.9371268,-96.6381359,['https://ssl.cdn-redfin.com/photo/90/mbphoto/897/genMid.13565897_1.jpg'],75040
31395455,721 ROYAL OAKS DR GARLAND TX 75040,3,2.0,1976,1597,8668,325011,Redfin Estimate,32.9370754,-96.6389587,['https://ssl.cdn-redfin.com/photo/90/mbphoto/419/genMid.10857419_2.jpg'],75040
31395460,721 KINGSBRIDGE DR GARLAND TX 75040,3,2.0,1973,1611,9422,323952,Redfin Estimate,32.9378836,-96.6391187,['https://maps.googleapis.com/maps/api/streetview?channel=mb-pdp-publicrecord&location=721+Kingsbridge+Dr%2C+Garland%2C+TX+75040&size=665x441&source=outdoor&client=gme-redfin&signature=-XlZeoFYIXPB-ldr4c7awLJtXgg='],75040
31395480,513 BROOKFIELD DR GARLAND TX 75040,3,2.0,1977,1841,7244,353486,Redfin Estimate,32.9360273,-96.6358995,['https://ssl.cdn-redfin.com/photo/90/mbphoto/433/genMid.14676433_0.jpg'],75040
31395485,442 BROOKFIELD DR GARLAND TX 75040,4,2.5,1977,1956,8969,357766,Redfin Estimate,32.9368645,-96.6353953,['https://maps.googleapis.com/maps/api/streetview?channel=mb-pdp-publicrecord&location=442+Brookfield+Dr%2C+Garland%2C+TX+75040&size=665x441&source=outdoor&client=gme-redfin&signature=4d-OJWg0qL6uefSj2-8tP7iA95I='],75040
31395586,404 BROOKFIELD DR GARLAND TX 75040,3,2.0,1977,1753,8024,331861,Redfin Estimate,32.938772,-96.6355745,['https://maps.googleapis.com/maps/api/streetview?channel=mb-pdp-publicrecord&location=404+Brookfield+Dr%2C+Garland%2C+TX+75040&size=665x441&source=outdoor&client=gme-redfin&signature=7nsHOxT9uN_xU3kpZ39y9SXVX04='],75040
31401640,434 NICKENS RD GARLAND TX 75043,3,1.5,1972,1273,7754,216205,Redfin Estimate,32.8656315,-96.614231,['https://maps.googleapis.com/maps/api/streetview?channel=mb-pdp-publicrecord&location=434+Nickens+Rd%2C+Garland%2C+TX+75043&size=665x441&source=outdoor&client=gme-redfin&signature=BU0hhJdzci6Dm22oB7z2mauY4W8='],75043
31394099,820 DENT ST GARLAND TX 75040,2,1.0,1951,942,8398,197693,Redfin Estimate,32.9212201,-96.6408296,['https://maps.googleapis.com/maps/api/streetview?channel=mb-pdp-publicrecord&location=820+Dent+St%2C+Garland%2C+TX+75040&size=665x441&source=outdoor&client=gme-redfin&signature=kAcwkfCqD-EIvtsr-C0VZhoZODI='],75040
31394143,820 HOLLY DR GARLAND TX 75040,2,1.0,1957,877,8398,204842,Redfin Estimate,32.9220883,-96.6408244,['https://maps.googleapis.com/maps/api/streetview?channel=mb-pdp-publicrecord&location=820+Holly+Dr%2C+Garland%2C+TX+75040&size=665x441&source=outdoor&client=gme-redfin&signature=ko4gT-MojiTDEM_eOgYXNVSGviw='],75040
31394136,813 HOLLY DR GARLAND TX 75040,2,1.0,1953,903,8398,238034,Redfin Estimate,32.9224662,-96.6404499,['https://ssl.cdn-redfin.com/photo/90/mbphoto/050/genMid.11732050_3.jpg'],75040
31394232,865 HOLLY DR GARLAND TX 75040,2,1.0,1957,1664,10001,247336,Redfin Estimate,32.922513,-96.6430799,['https://maps.googleapis.com/maps/api/streetview?channel=mb-pdp-publicrecord&location=865+Holly+Dr%2C+Garland%2C+TX+75040&size=665x441&source=outdoor&client=gme-redfin&signature=mzClBNvmVqBetvM9w13eU4R_dzE='],75040
30766571,2609 CHESAPEAKE DR GARLAND TX 75043,4,3.5,2005,3484,11465,498326,Redfin Estimate,32.874932,-96.5904766,['https://ssl.cdn-redfin.com/photo/90/mbphoto/952/genMid.11363952_2.jpg'],75043
30766556,2445 CHANNEL ISLE DR GARLAND TX 75043,5,3.0,2009,3458,8969,554339,Redfin Estimate,32.873021,-96.5913735,['https://maps.googleapis.com/maps/api/streetview?channel=mb-pdp-publicrecord&location=2445+Channel+Isle+Dr%2C+Garland%2C+TX+75043&size=665x441&source=outdoor&client=gme-redfin&signature=db9CG8lGizEmjU1m1dG8zQVeSP0='],75043
30762869,2601 CHANNEL ISLE DR GARLAND TX 75043,4,3.0,2006,3824,10694,523318,Redfin Estimate,32.8738846,-96.590302,['https://ssl.cdn-redfin.com/photo/90/mbphoto/716/genMid.13147716_0.jpg'],75043
31389869,4602 COLGATE LN GARLAND TX 75042,3,2.0,1964,1168,7200,281270,Redfin Estimate,32.9189857,-96.7022311,['https://maps.googleapis.com/maps/api/streetview?channel=mb-pdp-publicrecord&location=4602+Colgate+Ln%2C+Garland%2C+TX+75042&size=665x441&source=outdoor&client=gme-redfin&signature=X2Hv7vwc4K9HTZTsmYhyqqMVlNA='],75042
31389864,4626 COLGATE LN GARLAND TX 75042,3,2.0,1965,1651,7200,293008,Redfin Estimate,32.9190116,-96.7034359,['https://maps.googleapis.com/maps/api/streetview?channel=mb-pdp-publicrecord&location=4626+Colgate+Ln%2C+Garland%2C+TX+75042&size=665x441&source=outdoor&client=gme-redfin&signature=f5OT2CXslTB_weqOJmekote-7OI='],75042
31391195,4606 WINDSOR DR GARLAND TX 75042,3,2.0,1964,2184,7022,367944,Redfin Estimate,32.9205499,-96.7026423,['https://ssl.cdn-redfin.com/photo/90/mbphoto/818/genMid.10392818_0.jpg'],75042
31391435,702 FOREST RIDGE DR GARLAND TX 75042,3,2.0,1965,1208,9601,243016,Redfin Estimate,32.9194164,-96.7050294,['https://ssl.cdn-redfin.com/photo/90/mbphoto/516/genMid.11144516_3.jpg'],75042
31391419,4522 CORNELL DR GARLAND TX 75042,3,2.0,1964,1211,7680,279565,Redfin Estimate,32.9211274,-96.7016812,['https://maps.googleapis.com/maps/api/streetview?channel=mb-pdp-publicrecord&location=4522+Cornell+Dr%2C+Garland%2C+TX+75042&size=665x441&source=outdoor&client=gme-redfin&signature=LxWFD86ONjMgxSrb0A_jTeuWTMg='],75042
31391425,4510 CORNELL DR GARLAND TX 75042,4,2.0,1962,1194,8281,284736,Redfin Estimate,32.9209441,-96.7010126,['https://maps.googleapis.com/maps/api/streetview?channel=mb-pdp-publicrecord&location=32.9209441%2C-96.7010126&size=665x441&source=outdoor&client=gme-redfin&signature=sMvCG0gaxYeLykykdLbQHH_LlSM='],75042
31391463,4709 WINDSOR DR GARLAND TX 75042,3,2.0,1964,1445,7200,368835,Redfin Estimate,32.9209778,-96.704237,['https://ssl.cdn-redfin.com/photo/90/mbphoto/147/genMid.13939147_4.jpg'],75042
31391485,621 FOREST RIDGE DR GARLAND TX 75042,3,1.0,1965,1176,7200,274043,Redfin Estimate,32.9192142,-96.705484,['https://ssl.cdn-redfin.com/photo/90/mbphoto/880/genMid.11186880_3.jpg'],75042
31391314,725 FOREST RIDGE DR GARLAND TX 75042,3,1.0,1964,1188,7200,250093,Redfin Estimate,32.9203724,-96.7054703,['https://maps.googleapis.com/maps/api/streetview?channel=mb-pdp-publicrecord&location=725+Forest+Ridge+Dr%2C+Garland%2C+TX+75042&size=665x441&source=outdoor&client=gme-redfin&signature=NBqlF091c5fyicg6WW6MmaRvKVU='],75042
31391304,817 FOREST RIDGE DR GARLAND TX 75042,3,2.0,1963,1209,7200,364460,Redfin Estimate,32.9211917,-96.7054417,['https://ssl.cdn-redfin.com/photo/90/mbphoto/965/genMid.14726965_0.jpg'],75042
31405167,5106 SHOREGATE DR GARLAND TX 75043,2,2.0,1982,1276,3999,239820,Redfin Estimate,32.8551509,-96.5491295,['https://ssl.cdn-redfin.com/photo/90/mbphoto/769/genMid.12008769_2.jpg'],75043
31405179,5122 SHOREGATE DR GARLAND TX 75043,2,2.0,1982,1276,4038,234405,Redfin Estimate,32.8547065,-96.5491153,['https://ssl.cdn-redfin.com/photo/90/mbphoto/209/genMid.11783209_1.jpg'],75043
31405182,5145 SHOREGATE DR GARLAND TX 75043,3,2.0,1982,1334,4491,265725,Redfin Estimate,32.8540345,-96.5496062,['https://ssl.cdn-redfin.com/photo/90/mbphoto/087/genMid.13363087_1.jpg'],75043
31405411,5512 KEY BEND  GARLAND TX 75043,2,2.0,1983,1180,4299,249225,Redfin Estimate,32.853417,-96.5505457,['https://maps.googleapis.com/maps/api/streetview?channel=mb-pdp-publicrecord&location=5512+Key+Bnd%2C+Garland%2C+TX+75043&size=665x441&source=outdoor&client=gme-redfin&signature=7ijSkTuLvTxM_G9dmtWb0dAC01M='],75043
